{
  "station": [
    {
      "id": 8334,
      "name": "Taichung, Taiwan - Asia University",
      "status": "OPEN",
      "street": "500 Liufeng Rd",
      "state": "Taichung",
      "latitude": 24.046204,
      "longitude": 120.688311,
      "Notes": "",
      "hours": ""
    },
    {
      "id": 8057,
      "name": "Taoyuan, Taiwan - Daye Rd",
      "status": "OPEN",
      "street": "Minfu 17th St",
      "state": "Taoyuan",
      "latitude": 25.017363,
      "longitude": 121.310503,
      "Notes": "",
      "hours": ""
    },
    {
      "id": 8043,
      "name": "Changhua, Taiwan - Yuanlin",
      "status": "OPEN",
      "street": "55 Minquan St",
      "state": "Changhua",
      "latitude": 23.956476,
      "longitude": 120.569683,
      "Notes": "",
      "hours": ""
    },
    {
      "id": 8039,
      "name": "New Taipei, Taiwan - Linkou Four Points by Sheraton",
      "status": "OPEN",
      "street": "1 Section 1, Wenhuasan Rd, New Taipei",
      "state": "New Taipei",
      "latitude": 25.066298,
      "longitude": 121.360822,
      "Notes": "",
      "hours": ""
    },
    {
      "id": 8031,
      "name": "Yilan, Taiwan - Luodong Chunjing Rd",
      "status": "OPEN",
      "street": "Sec. 1, Chunjing Rd Yilan 265",
      "state": "Yilan",
      "latitude": 24.669503,
      "longitude": 121.765267,
      "Notes": "",
      "hours": ""
    },
    {
      "id": 7964,
      "name": "Kaohsiung, Taiwan - Gaonan",
      "status": "OPEN",
      "street": "100 Gaonan Highway 811",
      "state": "Kaohsiung",
      "latitude": 22.705142,
      "longitude": 120.324593,
      "Notes": "",
      "hours": ""
    },
    {
      "id": 7908,
      "name": "Tainan, Taiwan - Hsinying",
      "status": "OPEN",
      "street": "Xinyun 5th Rd",
      "state": "Tainan",
      "latitude": 23.311124,
      "longitude": 120.281453,
      "Notes": "",
      "hours": ""
    },
    {
      "id": 7838,
      "name": "Taoyuan, Taiwan - Longtan Sanlin PXMart",
      "status": "OPEN",
      "street": "298 Sec. Sanlin, Zhongzheng Rd",
      "state": "Taoyuan",
      "latitude": 24.84856,
      "longitude": 121.230354,
      "Notes": "",
      "hours": ""
    },
    {
      "id": 7716,
      "name": "Hsinchu, Taiwan - Shown Square",
      "status": "OPEN",
      "street": "No. 36, Ziqiang S Rd, 302",
      "state": "Hsinchu",
      "latitude": 24.819335,
      "longitude": 121.027016,
      "Notes": "",
      "hours": ""
    },
    {
      "id": 7639,
      "name": "New Taipei, Taiwan - Sanxia",
      "status": "OPEN",
      "street": "237 Xuecheng Rd",
      "state": "New Taipei",
      "latitude": 24.940856,
      "longitude": 121.372876,
      "Notes": "",
      "hours": ""
    },
    {
      "id": 7621,
      "name": "Taipei, Taiwan - Fubon Financial Center",
      "status": "OPEN",
      "street": "Section 4, Ren'ai Rd, No. 169 106",
      "state": "Taipei",
      "latitude": 25.038206,
      "longitude": 121.552103,
      "Notes": "",
      "hours": ""
    },
    {
      "id": 7585,
      "name": "Hualien, Taiwan - Xincheng",
      "status": "OPEN",
      "street": "Xinxing Road",
      "state": "Hualien",
      "latitude": 24.131093,
      "longitude": 121.63762,
      "Notes": "",
      "hours": ""
    },
    {
      "id": 7577,
      "name": "Hsinchu, Taiwan - Nanya Taroko Square",
      "status": "OPEN",
      "street": "Daya Rd, No. 88, 4F, 300",
      "state": "Hsinchu",
      "latitude": 24.819745,
      "longitude": 120.969997,
      "Notes": "Level 4",
      "hours": ""
    },
    {
      "id": 7533,
      "name": "Kaohsiung, Taiwan - Dream Mall",
      "status": "OPEN",
      "street": "7F, Zhonghua 5th Rd, No. 789 806",
      "state": "Kaohsiung",
      "latitude": 22.594681,
      "longitude": 120.307312,
      "Notes": "",
      "hours": ""
    },
    {
      "id": 7472,
      "name": "Changhua, Taiwan - Gongyuan Rd",
      "status": "OPEN",
      "street": "Sec. 2, Gongyuan Rd 500",
      "state": "Changhua",
      "latitude": 24.074079,
      "longitude": 120.556886,
      "Notes": "",
      "hours": ""
    },
    {
      "id": 7437,
      "name": "Yunlin, Taiwan - Dounan Datong",
      "status": "OPEN",
      "street": "Yunlin Lane 568, Datong Rd, No. 101-1, 630",
      "state": "Yunlin",
      "latitude": 23.689514,
      "longitude": 120.47764,
      "Notes": "",
      "hours": ""
    },
    {
      "id": 7315,
      "name": "Taichung, Taiwan - Xitun Wenxin 1st Rd",
      "status": "OPEN",
      "street": "Wenxin 1st Road Intersection of Huiwen 2nd Street",
      "state": "Taichung",
      "latitude": 24.155038,
      "longitude": 120.641861,
      "Notes": "",
      "hours": ""
    },
    {
      "id": 7314,
      "name": "Tainan, Taiwan - Park 17",
      "status": "OPEN",
      "street": "17 Nanke 3rd Road, Tainan",
      "state": "Tainan",
      "latitude": 23.098083,
      "longitude": 120.281482,
      "Notes": "",
      "hours": ""
    },
    {
      "id": 7264,
      "name": "Kaohsiung, Taiwan - Hanshin Arena",
      "status": "OPEN",
      "street": "KaohsiungBo’ai 2nd RdNo. 777 813",
      "state": "Kaohsiung",
      "latitude": 22.668591,
      "longitude": 120.301409,
      "Notes": "",
      "hours": ""
    },
    {
      "id": 7182,
      "name": "Tainan, Taiwan - Yongkang CHECKinn",
      "status": "OPEN",
      "street": "Zhongzheng N Rd, Tainan",
      "state": "Tainan",
      "latitude": 23.041492,
      "longitude": 120.24514,
      "Notes": "Level B2F",
      "hours": ""
    },
    {
      "id": 7171,
      "name": "Kaohsiung, Taiwan - Nanzih Tuku PXMart",
      "status": "OPEN",
      "street": "Kaohsiung Tuku 3rd RdNo. 57 811",
      "state": "Kaohsiung",
      "latitude": 22.737915,
      "longitude": 120.329585,
      "Notes": "",
      "hours": ""
    },
    {
      "id": 7155,
      "name": "Hsinchu, Taiwan - Qionglin",
      "status": "OPEN",
      "street": "Hsinchu Wende, 2nd St",
      "state": "Hsinchu",
      "latitude": 24.776984,
      "longitude": 121.075129,
      "Notes": "",
      "hours": ""
    },
    {
      "id": 6953,
      "name": "Taichung, Taiwan - Daan",
      "status": "OPEN",
      "street": "25 9th Rd, Taichung, Nanbei",
      "state": "Taichung",
      "latitude": 24.374163,
      "longitude": 120.588518,
      "Notes": "",
      "hours": ""
    },
    {
      "id": 6935,
      "name": "Taipei, Taiwan - National Chengchi University CPBAE",
      "status": "OPEN",
      "street": "Taipei City, Jinhua St187 106 Da'an Dist",
      "state": "Taipei",
      "latitude": 25.030517,
      "longitude": 121.527626,
      "Notes": "",
      "hours": ""
    },
    {
      "id": 6753,
      "name": "Pingtung, Taiwan - Hengchun",
      "status": "OPEN",
      "street": "Henggong Rd No. 716 946 Hengchun Township",
      "state": "Pingtung",
      "latitude": 22.003568,
      "longitude": 120.7401,
      "Notes": "",
      "hours": ""
    },
    {
      "id": 6715,
      "name": "Taichung, Taiwan - Qingshui Zhongshan PXMart",
      "status": "OPEN",
      "street": "No. 2-8 436, Zhongshan Rd, Taichung",
      "state": "Taichung",
      "latitude": 24.2595,
      "longitude": 120.571534,
      "Notes": "",
      "hours": ""
    },
    {
      "id": 6643,
      "name": "Taitung, Taiwan - Guanshan PXMart",
      "status": "OPEN",
      "street": "Taitung Heping Rd No. 22 956",
      "state": "Taitung",
      "latitude": 23.043509,
      "longitude": 121.162087,
      "Notes": "",
      "hours": ""
    },
    {
      "id": 6584,
      "name": "Tainan, Taiwan - Annan",
      "status": "OPEN",
      "street": "TainanRen’an Rd 709",
      "state": "Tainan",
      "latitude": 23.050449,
      "longitude": 120.176708,
      "Notes": "",
      "hours": ""
    },
    {
      "id": 6526,
      "name": "New Taipei, Taiwan - Xinzhuang",
      "status": "OPEN",
      "street": "New Taipei, Ln. 155, Zhonghe StAly. 24 242",
      "state": "New Taipei",
      "latitude": 25.051131,
      "longitude": 121.446414,
      "Notes": "",
      "hours": ""
    },
    {
      "id": 6517,
      "name": "Taipei, Taiwan - NTU Stadium",
      "status": "OPEN",
      "street": "Sec. 4, Roosevelt Rd No. 1 106, Taipei",
      "state": "Taipei",
      "latitude": 25.02165,
      "longitude": 121.535048,
      "Notes": "",
      "hours": "06:00 - 00:00"
    },
    {
      "id": 6484,
      "name": "Miaoli, Taiwan - Yuanli",
      "status": "OPEN",
      "street": "Miaoli Shangan No. 83-2 357 Yuanli Township",
      "state": "Miaoli",
      "latitude": 24.403709,
      "longitude": 120.671444,
      "Notes": "",
      "hours": ""
    },
    {
      "id": 6813,
      "name": "Chiayi, Taiwan - West District",
      "status": "OPEN",
      "street": "Chiayi Guohua St, No. 121 600",
      "state": "Chiayi",
      "latitude": 23.474746,
      "longitude": 120.448866,
      "Notes": "",
      "hours": ""
    },
    {
      "id": 6370,
      "name": "Chiayi, Taiwan - Zhuqi",
      "status": "OPEN",
      "street": "ChiayiDongyi Road, 621",
      "state": "Chiayi",
      "latitude": 23.510736,
      "longitude": 120.485626,
      "Notes": "",
      "hours": ""
    },
    {
      "id": 6220,
      "name": "Taipei, Taiwan - Dazhi Noke",
      "status": "OPEN",
      "street": "B2. 200 Lequn 3rd Rd, Taipei10491",
      "state": "Taipei",
      "latitude": 25.082594,
      "longitude": 121.557313,
      "Notes": "",
      "hours": "11:00 - 21:00"
    },
    {
      "id": 6196,
      "name": "Kaohsiung, Taiwan - Renwu",
      "status": "OPEN",
      "street": "814, Beiwu North Street, Kaohsiung",
      "state": "Kaohsiung",
      "latitude": 22.681016,
      "longitude": 120.33289,
      "Notes": "",
      "hours": ""
    },
    {
      "id": 6148,
      "name": "Taitung, Taiwan - Taimali Quanlian",
      "status": "OPEN",
      "street": "963, No. 190, Taitung Outer Ring Road",
      "state": "Taitung",
      "latitude": 22.607586,
      "longitude": 121.004445,
      "Notes": "",
      "hours": ""
    },
    {
      "id": 6084,
      "name": "Taipei, Taiwan - Guilin Carrefour",
      "status": "OPEN",
      "street": "Room 108, 7th Floor, No. 1, Guilin Road, Taipei",
      "state": "Taipei",
      "latitude": 25.037999,
      "longitude": 121.505562,
      "Notes": "",
      "hours": ""
    },
    {
      "id": 5979,
      "name": "Hualien, Taiwan - Park Road",
      "status": "OPEN",
      "street": "970 Gongyuan Road, Hualien City",
      "state": "Hualien",
      "latitude": 23.977741,
      "longitude": 121.611518,
      "Notes": "",
      "hours": ""
    },
    {
      "id": 5908,
      "name": "Hualien, Taiwan - Xiulin Knib",
      "status": "OPEN",
      "street": "972 Knib Road, Hualien",
      "state": "Hualien",
      "latitude": 24.311053,
      "longitude": 121.747608,
      "Notes": "",
      "hours": ""
    },
    {
      "id": 1506,
      "name": "Kaohsiung, Taiwan - Asia New Bay Area",
      "status": "OPEN",
      "street": "88 Chenggong 2nd Road, Qianzhen District",
      "state": "Kaohsiung",
      "latitude": 22.604249,
      "longitude": 120.301722,
      "Notes": "",
      "hours": ""
    },
    {
      "id": 5809,
      "name": "Yilan, Taiwan - Suao",
      "status": "OPEN",
      "street": "No. 2, Xincheng Road, Yilan",
      "state": "Yilan",
      "latitude": 24.617878,
      "longitude": 121.827221,
      "Notes": "",
      "hours": ""
    },
    {
      "id": 5790,
      "name": "Taipei, Taiwan - Xinyi Exchange Square 2",
      "status": "OPEN",
      "street": "B3 106, No. 97, Songren Road, Taipei",
      "state": "Taipei",
      "latitude": 25.036276,
      "longitude": 121.569386,
      "Notes": "Level B3",
      "hours": ""
    },
    {
      "id": 5778,
      "name": "Taipei, Taiwan - Daye Takashimaya",
      "status": "OPEN",
      "street": "Room 111, No. 55, Section 2, Zhongzhong Road, Taipei",
      "state": "Taipei",
      "latitude": 25.111364,
      "longitude": 121.531679,
      "Notes": "",
      "hours": ""
    },
    {
      "id": 5747,
      "name": "Yunlin, Taiwan - Linnei",
      "status": "OPEN",
      "street": "Room 643, No. 646, Zhongzheng Road, Yunlin",
      "state": "Yunlin",
      "latitude": 23.749396,
      "longitude": 120.609262,
      "Notes": "",
      "hours": ""
    },
    {
      "id": 5748,
      "name": "Changhua, Taiwan - Puxin",
      "status": "OPEN",
      "street": "513, Section 5, Yuanlu Road, Changhua",
      "state": "Changhua",
      "latitude": 23.951334,
      "longitude": 120.513786,
      "Notes": "",
      "hours": ""
    },
    {
      "id": 5746,
      "name": "Chiayi, Taiwan - Dapumei Rd",
      "status": "OPEN",
      "street": "No. 99, Meiyuan 3rd Road, Dapu, Chiayi",
      "state": "Chiayi",
      "latitude": 23.597486,
      "longitude": 120.51369,
      "Notes": "",
      "hours": ""
    },
    {
      "id": 5750,
      "name": "Taichung, Taiwan - Le Méridien Li Fang",
      "status": "OPEN",
      "street": "400, No. 111, Jianguo Road, Taichung",
      "state": "Taichung",
      "latitude": 24.136747,
      "longitude": 120.683227,
      "Notes": "",
      "hours": ""
    },
    {
      "id": 5749,
      "name": "Changhua, Taiwan - Water Recycling Center",
      "status": "OPEN",
      "street": "No. 701, Zhonghua West Road",
      "state": "Changhua",
      "latitude": 24.063194,
      "longitude": 120.521286,
      "Notes": "",
      "hours": ""
    },
    {
      "id": 5716,
      "name": "Pingtung, Taiwan - Nanzhou Jingzhong Nursery",
      "status": "OPEN",
      "street": "Room 926, No. 51, Jingming Road, Nanzhou Township, Pingtung",
      "state": "Pingtung",
      "latitude": 22.489652,
      "longitude": 120.523962,
      "Notes": "",
      "hours": ""
    },
    {
      "id": 5718,
      "name": "Hualien, Taiwan - Huilan",
      "status": "OPEN",
      "street": "973, No. 505, Section 1, Nanbin Road, Hualien",
      "state": "Hualien",
      "latitude": 23.938327,
      "longitude": 121.595392,
      "Notes": "",
      "hours": ""
    },
    {
      "id": 5517,
      "name": "Pingtung, Taiwan - Kenting Maya House",
      "status": "OPEN",
      "street": "Kenting Road, No. 330-6, 946",
      "state": "Pingtung",
      "latitude": 21.949875,
      "longitude": 120.790257,
      "Notes": "",
      "hours": ""
    },
    {
      "id": 5501,
      "name": "Taichung, Taiwan - Taroko New Era",
      "status": "OPEN",
      "street": "No. 186, Section 4, Fuxing Road, Taichung 401",
      "state": "Taichung",
      "latitude": 24.135916,
      "longitude": 120.687776,
      "Notes": "Level B3",
      "hours": ""
    },
    {
      "id": 5086,
      "name": "Kaohsiung, Taiwan - Baonan PXMart",
      "status": "OPEN",
      "street": "No. 207, Baonan 2nd Road, Fengshan District",
      "state": "Kaohsiung",
      "latitude": 22.595949,
      "longitude": 120.349871,
      "Notes": "",
      "hours": ""
    },
    {
      "id": 5087,
      "name": "New Taipei, Taiwan - Xinzhuang Tesla Centre",
      "status": "OPEN",
      "street": "Xinzhuang Service Experience Center, 242 No. 37, Huacheng Road, Xinzhuang District",
      "state": "New Taipei",
      "latitude": 25.044506,
      "longitude": 121.464697,
      "Notes": "",
      "hours": ""
    },
    {
      "id": 5020,
      "name": "Taoyuan, Taiwan - Pingzhen",
      "status": "OPEN",
      "street": "Room 324, No. 313, Huannan Road, Taoyuan",
      "state": "Taoyuan",
      "latitude": 24.94986,
      "longitude": 121.2067,
      "Notes": "",
      "hours": ""
    },
    {
      "id": 4859,
      "name": "Kaohsiung, Taiwan - Science Park",
      "status": "OPEN",
      "street": "No. 23, Luke 5th Road, Luzhu District, Kaohsiung City 821",
      "state": "Kaohsiung",
      "latitude": 22.830602,
      "longitude": 120.256279,
      "Notes": "",
      "hours": ""
    },
    {
      "id": 4860,
      "name": "Nantou, Taiwan - Puli",
      "status": "OPEN",
      "street": "No. 1, Rongguang Road, Puli Town, Nantou County 545",
      "state": "Nantou",
      "latitude": 23.9766277,
      "longitude": 120.99664,
      "Notes": "",
      "hours": ""
    },
    {
      "id": 4861,
      "name": "Taichung, Taiwan - Youheng Street",
      "status": "OPEN",
      "street": "402 Taichung City South District, Fuxing Road Section 3 and Youheng Street",
      "state": "Taichung",
      "latitude": 24.131223,
      "longitude": 120.67548,
      "Notes": "",
      "hours": ""
    },
    {
      "id": 4534,
      "name": "Miaoli, Taiwan - Zhunan",
      "status": "OPEN",
      "street": "Miaoli Miaoli Bo'ai Street 350",
      "state": "Miaoli",
      "latitude": 24.68964,
      "longitude": 120.863384,
      "Notes": "",
      "hours": ""
    },
    {
      "id": 4566,
      "name": "Taipei, Taiwan - Songshan",
      "status": "OPEN",
      "street": "Section 6, Civic Avenue, Xinyi District, Taipei",
      "state": "Taipei",
      "latitude": 25.04885,
      "longitude": 121.57705,
      "Notes": "",
      "hours": ""
    },
    {
      "id": 4567,
      "name": "Taitung, Taiwan - Provincial Way",
      "status": "OPEN",
      "street": "Runners House, No. 47, Zhuhu Village, Zhuhu Village, Changbin Township, Taitung County 962",
      "state": "Taitung",
      "latitude": 23.28293,
      "longitude": 121.4276,
      "Notes": "",
      "hours": ""
    },
    {
      "id": 4393,
      "name": "Tainan, Taiwan - Shanhua",
      "status": "OPEN",
      "street": "No. 427, Chenggong Road, Shanhua District",
      "state": "Tainan",
      "latitude": 23.129417,
      "longitude": 120.309002,
      "Notes": "",
      "hours": ""
    },
    {
      "id": 4345,
      "name": "New Taipei, Taiwan - Sec. 1 Zhongzheng Rd",
      "status": "OPEN",
      "street": "No. 2, Section 1, Zhongzheng Road, Danshui District, 251",
      "state": "New Taipei",
      "latitude": 25.176117,
      "longitude": 121.4289,
      "Notes": "",
      "hours": ""
    },
    {
      "id": 4333,
      "name": "Chiayi, Taiwan - Budai",
      "status": "OPEN",
      "street": "625 Hai’an Road",
      "state": "Chiayi",
      "latitude": 23.37834,
      "longitude": 120.15351,
      "Notes": "",
      "hours": ""
    },
    {
      "id": 4179,
      "name": "Kaohsiung, Taiwan - Esky Land",
      "status": "OPEN",
      "street": "804 Floor B3, No. 115, Dashun 1st Road, Gushan District",
      "state": "Kaohsiung",
      "latitude": 22.656357,
      "longitude": 120.306282,
      "Notes": "Level B3",
      "hours": ""
    },
    {
      "id": 4102,
      "name": "Chiayi, Taiwan - Chungpu Barn",
      "status": "OPEN",
      "street": "606 Alishan Highway",
      "state": "Chiayi",
      "latitude": 23.446379,
      "longitude": 120.494227,
      "Notes": "",
      "hours": ""
    },
    {
      "id": 4103,
      "name": "Tainan, Taiwan - Dongshan Service Area",
      "status": "OPEN",
      "street": "National Highway No. 3 - Dongshan Service Area",
      "state": "Tainan",
      "latitude": 23.28473,
      "longitude": 120.398472,
      "Notes": "",
      "hours": ""
    },
    {
      "id": 4001,
      "name": "Hsinchu, Taiwan - Hukou Service Area Northbound",
      "status": "OPEN",
      "street": "No. 158, Rongguang Road, Hukou Township",
      "state": "Hsinchu",
      "latitude": 24.862286,
      "longitude": 121.012588,
      "Notes": "",
      "hours": ""
    },
    {
      "id": 4002,
      "name": "Hsinchu, Taiwan - Hukou Service Area Southbound",
      "status": "OPEN",
      "street": "No. 8, Lane 1, Guoqiang Street, Hukou Township",
      "state": "Hsinchu",
      "latitude": 24.857116,
      "longitude": 121.008624,
      "Notes": "",
      "hours": ""
    },
    {
      "id": 3999,
      "name": "Tainan, Taiwan - Yongkang AMart",
      "status": "OPEN",
      "street": "No. 533, Zhongzheng South Road, Yongkang District",
      "state": "Tainan",
      "latitude": 23.033974,
      "longitude": 120.228372,
      "Notes": "",
      "hours": ""
    },
    {
      "id": 4000,
      "name": "Taichung, Taiwan - Qingshui Service Area",
      "status": "OPEN",
      "street": "No. 89, Wucuo 2nd Street, Qingshui District",
      "state": "Taichung",
      "latitude": 24.281538,
      "longitude": 120.602003,
      "Notes": "",
      "hours": ""
    },
    {
      "id": 3944,
      "name": "New Taipei, Taiwan - Sanchong",
      "status": "OPEN",
      "street": "241 No. 45, Lane 193, Zhongzheng North Road, Sanchong District",
      "state": "New Taipei",
      "latitude": 25.071416,
      "longitude": 121.476237,
      "Notes": "",
      "hours": "09:00 - 23:00"
    },
    {
      "id": 3945,
      "name": "Taipei, Taiwan - Shihlin",
      "status": "OPEN",
      "street": "111, No. 465, Section 5, Zhongshan North Road, Shilin District",
      "state": "Taipei",
      "latitude": 25.092936,
      "longitude": 121.527162,
      "Notes": "",
      "hours": ""
    },
    {
      "id": 3943,
      "name": "Taichung, Taiwan - Fengyuan A Mart",
      "status": "OPEN",
      "street": "No. 420 Shuiyuan Road, Fengyuan District",
      "state": "Taichung",
      "latitude": 24.25594,
      "longitude": 120.734392,
      "Notes": "",
      "hours": ""
    },
    {
      "id": 3863,
      "name": "Hsinchu, Taiwan - Zhubei Jiafeng South Road",
      "status": "OPEN",
      "street": "Jiafeng South Road",
      "state": "Hsinchu",
      "latitude": 24.804922,
      "longitude": 121.030175,
      "Notes": "",
      "hours": ""
    },
    {
      "id": 3827,
      "name": "Taichung, Taiwan - Zhouji",
      "status": "OPEN",
      "street": "406 Junction of Fengle 1st Street, Intercontinental Road",
      "state": "Taichung",
      "latitude": 24.199725,
      "longitude": 120.679621,
      "Notes": "",
      "hours": ""
    },
    {
      "id": 3575,
      "name": "Taoyuan, Taiwan - Yangmei Guo Yuanyi",
      "status": "OPEN",
      "street": "Room 326, No. 3, Lane 9, Qingnian Road, Taoyuan",
      "state": "Taoyuan",
      "latitude": 24.928365,
      "longitude": 121.167163,
      "Notes": "",
      "hours": ""
    },
    {
      "id": 3756,
      "name": "Keelung, Taiwan - Xiaodong Road",
      "status": "OPEN",
      "street": "201 No. 88 Xiaodong Road, Xinyi District",
      "state": "Keelung",
      "latitude": 25.12767442,
      "longitude": 121.780918,
      "Notes": "",
      "hours": ""
    },
    {
      "id": 3754,
      "name": "Taoyuan, Taiwan - Guishan",
      "status": "OPEN",
      "street": "334 Lane 52, Wensan 2nd Street, Guishan District",
      "state": "Taoyuan",
      "latitude": 25.056755,
      "longitude": 121.360149,
      "Notes": "",
      "hours": ""
    },
    {
      "id": 3755,
      "name": "Taoyuan, Taiwan - Chingpu Global Mall A19",
      "status": "OPEN",
      "street": "320 No. 352, Section 2, High Speed Rail South Road, Zhongli District",
      "state": "Taoyuan",
      "latitude": 25.0021653,
      "longitude": 121.2018036,
      "Notes": "",
      "hours": ""
    },
    {
      "id": 3757,
      "name": "Taichung, Taiwan - Fuxing AMart",
      "status": "OPEN",
      "street": "402 No. 359, Section 1, Fuxing Road, South District",
      "state": "Taichung",
      "latitude": 24.11528342,
      "longitude": 120.6541725,
      "Notes": "",
      "hours": "09:00 - 23:00"
    },
    {
      "id": 3609,
      "name": "Hsinchu, Taiwan - Nanya",
      "status": "OPEN",
      "street": "RT-Mart No. 97, Nanya Street, North District",
      "state": "Hsinchu",
      "latitude": 24.819497,
      "longitude": 120.970701,
      "Notes": "",
      "hours": "07:00-24:00"
    },
    {
      "id": 3512,
      "name": "Taoyuan, Taiwan - Bade",
      "status": "OPEN",
      "street": "No. 295, Dongyong North Road, Bade District",
      "state": "Taoyuan",
      "latitude": 24.965345,
      "longitude": 121.307035,
      "Notes": "",
      "hours": ""
    },
    {
      "id": 3459,
      "name": "Taichung, Taiwan - Shuinan Aimai",
      "status": "OPEN",
      "street": "Room 407, 5th Floor, No. 1199, Section 2, Zhongqing Road, Taichung",
      "state": "Taichung",
      "latitude": 24.192657,
      "longitude": 120.65993,
      "Notes": "",
      "hours": "9:00am - 10:30pm"
    },
    {
      "id": 3452,
      "name": "Kaohsiung, Taiwan - Luzhu",
      "status": "OPEN",
      "street": "No.315, Fuxing Road",
      "state": "Kaohsiung",
      "latitude": 22.847531,
      "longitude": 120.273906,
      "Notes": "",
      "hours": ""
    },
    {
      "id": 3226,
      "name": "Nantou, Taiwan - Caotun",
      "status": "OPEN",
      "street": "Caoxi Road",
      "state": "Nantou",
      "latitude": 23.966192,
      "longitude": 120.677881,
      "Notes": "",
      "hours": ""
    },
    {
      "id": 3250,
      "name": "New Taipei, Taiwan - Tucheng ASE Plaza",
      "status": "OPEN",
      "street": "B3F236, No. 210, Section 2, Xuefu Road",
      "state": "New Taipei",
      "latitude": 24.978761,
      "longitude": 121.444683,
      "Notes": "",
      "hours": "7am-12am"
    },
    {
      "id": 2658,
      "name": "Taipei, Taiwan - Nangang Exhibition Hall 2",
      "status": "OPEN",
      "street": "No. 2, Jingmao 2nd Road, Nangang District",
      "state": "Taipei",
      "latitude": 25.056849,
      "longitude": 121.614709,
      "Notes": "",
      "hours": ""
    },
    {
      "id": 2464,
      "name": "Yilan, Taiwan - Nuzhong Rd",
      "status": "OPEN",
      "street": "Room 260, No. 277, Section 1, Yilan Nuzhong Road",
      "state": "Yilan",
      "latitude": 24.7476826,
      "longitude": 121.7629552,
      "Notes": "",
      "hours": ""
    },
    {
      "id": 2518,
      "name": "Taipei, Taiwan - Aloft Beitou",
      "status": "OPEN",
      "street": "No. 1 Daye Road Lane 300",
      "state": "Taipei",
      "latitude": 25.1285,
      "longitude": 121.498,
      "Notes": "",
      "hours": ""
    },
    {
      "id": 2465,
      "name": "New Taipei, Taiwan - Asehome Design Center",
      "status": "OPEN",
      "street": "Room 221, No. 13, Lane 751, Kangning Street, Xizhi District, New Taipei Cit",
      "state": "New Taipei",
      "latitude": 25.074837,
      "longitude": 121.6378285,
      "Notes": "",
      "hours": "08:00-20:00"
    },
    {
      "id": 2415,
      "name": "Tainan, Taiwan - Art Museum",
      "status": "OPEN",
      "street": "No. 258 Fuqian Road Section 1",
      "state": "Tainan",
      "latitude": 22.990136,
      "longitude": 120.200944,
      "Notes": "",
      "hours": ""
    },
    {
      "id": 2410,
      "name": "Taipei, Taiwan - NTU Xinhai",
      "status": "OPEN",
      "street": "Section 2, Xinhai Road",
      "state": "Taipei",
      "latitude": 25.020459,
      "longitude": 121.543099,
      "Notes": "",
      "hours": ""
    },
    {
      "id": 2260,
      "name": "Hsinchu, Taiwan - Zhubei Harrods",
      "status": "OPEN",
      "street": "No. 297, Section 2, Wenxing Road",
      "state": "Hsinchu",
      "latitude": 24.807265,
      "longitude": 121.036114,
      "Notes": "V2's dual cable tunning 72kW",
      "hours": ""
    },
    {
      "id": 2210,
      "name": "Chiayi, Taiwan - Taibao",
      "status": "OPEN",
      "street": "No. 64, Section 1, Zhongshan Road",
      "state": "Chiayi",
      "latitude": 23.496492,
      "longitude": 120.387577,
      "Notes": "",
      "hours": ""
    },
    {
      "id": 2137,
      "name": "Taipei, Taiwan - Xindian",
      "status": "OPEN",
      "street": "No. 221, Section 3, Beixin Road,",
      "state": "Taipei",
      "latitude": 24.98561,
      "longitude": 121.539849,
      "Notes": "",
      "hours": ""
    },
    {
      "id": 2072,
      "name": "Taichung, Taiwan - Park Lane by CMP",
      "status": "OPEN",
      "street": "B3403, No. 68, Gongyi Road, West District, Taichung City",
      "state": "Taichung",
      "latitude": 24.15162,
      "longitude": 120.664184,
      "Notes": "",
      "hours": "07:30-22:00"
    },
    {
      "id": 2010,
      "name": "Taoyuan City, Taiwan - Taimao Shopping Center",
      "status": "OPEN",
      "street": "Room 338, 1st Floor, No. 112, Section 1, Nankan Road, Luzhu District, Taoyuan City",
      "state": "Taoyuan",
      "latitude": 25.053926,
      "longitude": 121.287869,
      "Notes": "",
      "hours": ""
    },
    {
      "id": 1912,
      "name": "New Taipei, Taiwan - Zhonghe Global Shopping Center",
      "status": "OPEN",
      "street": "Room 235, 6th Floor, No. 122, Section 3, Zhongshan Road, Zhonghe District, New Taipei City",
      "state": "New Taipei",
      "latitude": 25.008094,
      "longitude": 121.474834,
      "Notes": "",
      "hours": ""
    },
    {
      "id": 1863,
      "name": "Taichung, Taiwan - J Mall",
      "status": "OPEN",
      "street": "Room 407, No. 1038, Section 4, Taiwan Avenue, Xitun District, Taichung City",
      "state": "Taichung",
      "latitude": 24.183497,
      "longitude": 120.615073,
      "Notes": "",
      "hours": ""
    },
    {
      "id": 1741,
      "name": "Pingtung, Taiwan - Fangshan",
      "status": "OPEN",
      "street": "No. 61, Section 3, Zhongshan Road, Fangshan Township, Pingtung County 941",
      "state": "Pingtung",
      "latitude": 22.243673,
      "longitude": 120.663738,
      "Notes": "",
      "hours": ""
    },
    {
      "id": 1675,
      "name": "Taitung, Taiwan - Naruwan Hotel",
      "status": "OPEN",
      "street": "950, No. 66, Lianhang Road, Taitung City, Taitung County",
      "state": "Taitung",
      "latitude": 22.770315,
      "longitude": 121.122457,
      "Notes": "",
      "hours": ""
    },
    {
      "id": 1664,
      "name": "Miaoli, Taiwan - Tounglo Science Park",
      "status": "OPEN",
      "street": "6 Tongluo Township Tongke 6th Rd",
      "state": "Miaoli",
      "latitude": 24.462022,
      "longitude": 120.759966,
      "Notes": "",
      "hours": ""
    },
    {
      "id": 1413,
      "name": "Hsinchu, Taiwan - Science Park",
      "status": "OPEN",
      "street": "No. 1 Industry East 2nd Road",
      "state": "Hsinchu",
      "latitude": 24.779712,
      "longitude": 121.005269,
      "Notes": "",
      "hours": ""
    },
    {
      "id": 1244,
      "name": "Taipei, Taiwan - Neihu Service Centre (SC)",
      "status": "OPEN",
      "street": "No. 6, Lane 11 Section 6 Minquan East Road, Neihu",
      "state": "Taipei",
      "latitude": 25.067189,
      "longitude": 121.575158,
      "Notes": "",
      "hours": ""
    },
    {
      "id": 1171,
      "name": "Tainan, Taiwan - Chi Mei Museum",
      "status": "OPEN",
      "street": "No. 66, Section 2, Wenhua Road, Rende District, Tainan City",
      "state": "Tainan",
      "latitude": 22.936091,
      "longitude": 120.221582,
      "Notes": "",
      "hours": ""
    },
    {
      "id": 1025,
      "name": "Taipei, Taiwan - Taipei Expo Park",
      "status": "OPEN",
      "street": "1 Yumen St",
      "state": "Taipei",
      "latitude": 25.06867,
      "longitude": 121.52126,
      "Notes": "",
      "hours": ""
    },
    {
      "id": 10781,
      "name": "Taoyuan 3, Taiwan",
      "status": "CONSTRUCTION",
      "street": "Sanyuan St",
      "state": "Taoyuan",
      "latitude": 24.911278,
      "longitude": 121.167645,
      "Notes": "",
      "hours": ""
    },
    {
      "id": 10816,
      "name": "Yilan, Taiwan",
      "status": "CONSTRUCTION",
      "street": "No. 316, Jianlan S Rd",
      "state": "Yilan",
      "latitude": 24.724835,
      "longitude": 121.756779,
      "Notes": "",
      "hours": ""
    },
    {
      "id": 10817,
      "name": "Taichung 2, Taiwan",
      "status": "PLAN",
      "street": "No. 77, Guanqian Rd",
      "state": "Taichung",
      "latitude": 24.152775,
      "longitude": 120.66384,
      "Notes": "",
      "hours": ""
    },
    {
      "id": 10818,
      "name": "Changhua, Taiwan",
      "status": "CONSTRUCTION",
      "street": "Lugong Rd",
      "state": "Changhua",
      "latitude": 24.077143,
      "longitude": 120.412473,
      "Notes": "",
      "hours": ""
    },
    {
      "id": 10819,
      "name": "Tainan - Anping, Taiwan",
      "status": "PLAN",
      "street": "Fuping Rd",
      "state": "Tainan",
      "latitude": 22.987293,
      "longitude": 120.162892,
      "Notes": "",
      "hours": ""
    },
    {
      "id": 10820,
      "name": "Kaohsiung 2, Taiwan",
      "status": "PLAN",
      "street": "Zhongzheng 1st Rd",
      "state": "Kaohsiung",
      "latitude": 22.630469,
      "longitude": 120.325178,
      "Notes": "",
      "hours": ""
    },
    {
      "id": 8332,
      "name": "Taoyuan 2, Taiwan",
      "status": "PLAN",
      "street": "x",
      "state": "Taoyuan",
      "latitude": 25.116544,
      "longitude": 121.250514,
      "Notes": "",
      "hours": ""
    },
    {
      "id": 8323,
      "name": "Keelung, Taiwan",
      "status": "CONSTRUCTION",
      "street": "Lane 55, Shenxi Rd",
      "state": "Keelung",
      "latitude": 25.132342,
      "longitude": 121.782059,
      "Notes": "",
      "hours": ""
    },
    {
      "id": 8331,
      "name": "Hsinchu 3, Taiwan",
      "status": "CONSTRUCTION",
      "street": "Zhongzheng Rd",
      "state": "Hsinchu",
      "latitude": 24.729644,
      "longitude": 121.091831,
      "Notes": "",
      "hours": ""
    },
    {
      "id": 8329,
      "name": "Hsinchu 1, Taiwan",
      "status": "CONSTRUCTION",
      "street": "Guangming 2nd St",
      "state": "Hsinchu",
      "latitude": 24.831029,
      "longitude": 121.008547,
      "Notes": "",
      "hours": ""
    },
    {
      "id": 8330,
      "name": "Hsinchu 2, Taiwan",
      "status": "CONSTRUCTION",
      "street": "Alguo Rd",
      "state": "Hsinchu",
      "latitude": 24.840999,
      "longitude": 120.929126,
      "Notes": "",
      "hours": ""
    },
    {
      "id": 8333,
      "name": "Taichung, Taiwan",
      "status": "CONSTRUCTION",
      "street": "Taichung East St",
      "state": "Taichung",
      "latitude": 24.161144,
      "longitude": 120.723192,
      "Notes": "",
      "hours": ""
    },
    {
      "id": 8326,
      "name": "New Taipei, Taiwan",
      "status": "CONSTRUCTION",
      "street": "Guixling Road",
      "state": "New Taipei",
      "latitude": 25.002233,
      "longitude": 121.456379,
      "Notes": "",
      "hours": ""
    },
    {
      "id": 8335,
      "name": "Pingtung, Taiwan",
      "status": "CONSTRUCTION",
      "street": "Zili Rd",
      "state": "Taichung",
      "latitude": 22.666438,
      "longitude": 120.488576,
      "Notes": "",
      "hours": ""
    },
    {
      "id": 8328,
      "name": "Taoyuan, Taiwan",
      "status": "CONSTRUCTION",
      "street": "Zhongshan Rd",
      "state": "Taoyuan",
      "latitude": 24.98974,
      "longitude": 121.286914,
      "Notes": "",
      "hours": ""
    },
    {
      "id": 8322,
      "name": "Kaohsiung, Taiwan",
      "status": "CONSTRUCTION",
      "street": "X",
      "state": "Kaohsiung",
      "latitude": 22.650131,
      "longitude": 120.343791,
      "Notes": "",
      "hours": ""
    },
    {
      "id": 8953,
      "name": "Tainan, Taiwan",
      "status": "PLAN",
      "street": "Lane 258, Section 2, Fuqian Road",
      "state": "Taichung",
      "latitude": 22.992292,
      "longitude": 120.190818,
      "Notes": "",
      "hours": ""
    },
    {
      "id": 2339,
      "name": "Hualien, Taiwan - DAKA",
      "status": "CLOSED_PERM",
      "street": "972 Suhua Highway",
      "state": "Hualien",
      "latitude": 24.3013591,
      "longitude": 121.7513107,
      "Notes": "",
      "hours": ""
    },
    {
      "id": 9222,
      "name": "Taichung, Taiwan - Qingshui",
      "status": "PLAN",
      "street": "Dayong Rd",
      "state": "Taichung",
      "latitude": 24.269349,
      "longitude": 120.532647,
      "Notes": "",
      "hours": ""
    },
    {
      "id": 1218,
      "name": "Taichung, Taiwan - Shizheng",
      "status": "CLOSED_PERM",
      "street": "No. 301 Section 3, Henan Road",
      "state": "Taichung",
      "latitude": 24.161036,
      "longitude": 120.637014,
      "Notes": "",
      "hours": ""
    },
    {
      "id": 1523,
      "name": "Hualien, Taiwan - Chateau de Chine",
      "status": "CLOSED_PERM",
      "street": "Shunxing Road, Hualien County",
      "state": "Hualien",
      "latitude": 23.992627,
      "longitude": 121.627654,
      "Notes": "",
      "hours": ""
    },
    {
      "id": 2466,
      "name": "Kaohsiung, Taiwan - Joy Plaza",
      "status": "CLOSED_PERM",
      "street": "No. 427, Minzu 1st Road",
      "state": "Kaohsiung",
      "latitude": 22.656359,
      "longitude": 120.3151366,
      "Notes": "",
      "hours": ""
    }
  ],
  "times": [
    [
      0, 125.35, 30.6, 125.02, 188.35, 131.37, 89.2, 103.33, 90.92, 116.05,
      148.33, 269.68, 98.6, 146.93, 29.9, 53.25, 31.17, 104.08, 142.22, 104.4,
      129.65, 90.17, 55.8, 146.17, 210.57, 39.32, 328.78, 112.83, 138.32, 141.1,
      47.62, 75.57, 60.05, 147.75, 135.35, 253.7, 144.33, 302.07, 240.4, 148.43,
      186.58, 144.3, 153.37, 43.48, 32.92, 53, 32.13, 25.17, 140.93, 313.67,
      228.8, 28.43, 143.98, 141.33, 112.67, 121.42, 34.97, 28.92, 72.37, 149.07,
      365.43, 91.83, 170.87, 99.57, 144.57, 64.82, 79.57, 92.48, 99.02, 109.07,
      38.4, 144.77, 146.88, 46.75, 94.57, 36.52, 106.07, 161.82, 126.2, 122.98,
      23.48, 98.55, 116.7, 36.3, 120.03, 22.53, 129.18, 147.2, 178.43, 147.25,
      152.82, 122.17, 142.22, 96.4, 65.83, 140.08, 37.73, 125.08, 134.03, 33.5,
      177.58, 286.93, 60.75, 83.95, 143.27, 113.17, 144.07, 106.07, 183.4,
      37.62, 51.28, 131.63, 140.7, 135.32, 163.3, 97.05, 93.4, 98.8, 28.62,
      130.22, 141.13, 122.08, 142, 125.4, 240.63, 48.5, 27.08, 298.42, 140.05
    ],
    [
      126.27, 0, 132.13, 20.08, 95.5, 227.72, 179.72, 33.8, 49.43, 26.95, 45.9,
      176.83, 61.72, 237.43, 126.22, 143.75, 112.62, 199.6, 235.15, 194.9,
      220.15, 46.37, 99.07, 46.7, 313.53, 102.6, 362.47, 203.32, 41.33, 44.82,
      86.3, 169.88, 167.5, 42.82, 227.68, 356.68, 46.03, 209.22, 147.55, 238.95,
      93.75, 50.52, 48.53, 152.82, 123.42, 160.45, 122.17, 115.68, 243.9,
      220.82, 331.77, 125.87, 234.48, 44.32, 29.98, 211.92, 146.75, 124.35,
      61.75, 45.78, 310.25, 196.4, 67.58, 190.07, 235.7, 172.25, 185.72, 52.57,
      41.5, 200.33, 98.78, 39.82, 42.15, 105.7, 55.92, 103.57, 30.17, 61.22,
      21.27, 29.92, 121.9, 61.47, 23.5, 103.05, 210.55, 135.75, 40.08, 44.9,
      85.6, 43.97, 49.67, 212.68, 44.65, 54.92, 156.33, 50.98, 115.2, 18.82,
      44.93, 106.42, 280.55, 389.9, 80.32, 52.3, 39.98, 204.75, 39.12, 32.4,
      90.55, 115.08, 132.1, 223.23, 231.22, 34.32, 62.7, 55.65, 50, 61.72,
      114.27, 41.13, 244.1, 16.08, 232.5, 216.4, 147.8, 106.42, 108.38, 205.58,
      230.55
    ],
    [
      29.92, 129.03, 0, 128.7, 192.45, 120.53, 72.53, 107.43, 94.58, 120.15,
      152.43, 273.78, 102.28, 130.25, 29.68, 36.57, 39.57, 92.42, 127.97, 87.72,
      112.97, 94.27, 59.9, 150.27, 206.35, 43.42, 324.58, 96.13, 142.42, 145.18,
      51.7, 62.7, 58.8, 151.43, 120.5, 249.5, 148.43, 306.15, 244.48, 131.77,
      190.68, 148.4, 157.05, 42.23, 16.23, 51.75, 46.13, 20.22, 136.72, 317.77,
      224.58, 42.63, 127.3, 145.43, 116.35, 104.73, 46.82, 43.4, 76.45, 152.75,
      361.22, 89.22, 174.53, 82.88, 128.52, 63.57, 78.32, 96.15, 102.68, 93.15,
      42.48, 148.43, 150.55, 54.73, 98.25, 42.63, 109.75, 165.92, 129.88,
      126.67, 39.45, 102.23, 120.78, 38.02, 103.37, 21.98, 133.28, 151.3,
      182.53, 150.93, 157.98, 105.5, 146.32, 100.08, 49.15, 144.18, 43.9,
      128.77, 138.12, 36.95, 173.37, 282.72, 62.6, 87.63, 146.95, 97.57, 147.73,
      109.73, 187.5, 43.8, 34.12, 116.05, 124.03, 139, 167.4, 101.13, 97.08,
      102.47, 42.82, 134.32, 136.92, 126.18, 125.32, 109.22, 244.73, 52.6, 37.1,
      302.52, 123.37
    ],
    [
      123.02, 17.83, 128.72, 0, 82.17, 224.3, 176.3, 36.08, 43.75, 29.25, 32.55,
      163.5, 56.05, 234.03, 122.73, 140.35, 108.95, 196.18, 231.73, 191.48,
      216.75, 48.65, 95.82, 33.35, 310.12, 99.35, 349.13, 199.9, 28, 31.47,
      83.05, 166.48, 164.08, 29.48, 224.27, 353.27, 32.7, 195.88, 134.22,
      235.53, 80.4, 37.18, 35.2, 149.57, 120.02, 157.03, 118.5, 112.27, 240.48,
      207.48, 328.35, 122.2, 231.07, 30.97, 24.32, 208.52, 143.5, 120.68, 58.5,
      32.45, 296.92, 192.98, 54.23, 186.65, 232.28, 168.85, 182.3, 46.9, 35.82,
      196.93, 95.53, 26.48, 28.8, 102.02, 50.25, 99.9, 24.48, 47.88, 3.4, 26.62,
      118.23, 56.98, 25.8, 99.37, 207.13, 132.5, 42.15, 31.55, 72.25, 30.63,
      36.33, 209.27, 31.32, 49.25, 152.93, 43.08, 111.53, 14.85, 40.6, 102.75,
      277.13, 386.5, 76.65, 46.63, 26.65, 201.35, 25.78, 26.72, 77.22, 111.42,
      128.85, 219.82, 227.8, 28.88, 49.35, 57.93, 44.33, 57.22, 110.6, 39.13,
      240.7, 20.65, 229.1, 212.98, 134.45, 103.17, 104.72, 192.25, 227.13
    ],
    [
      195.93, 100.77, 201.8, 88.97, 0, 297.38, 249.38, 103.47, 124.58, 90.12,
      71.85, 101.3, 133.08, 307.12, 195.9, 213.43, 182.28, 269.27, 304.82,
      264.57, 289.83, 116.03, 168.73, 72.93, 383.2, 172.27, 286.93, 272.98,
      92.45, 68.7, 155.97, 239.57, 237.17, 73.45, 297.35, 345.15, 78.9, 133.68,
      72.02, 308.62, 18.22, 67.82, 85.5, 222.5, 193.1, 230.12, 191.83, 185.35,
      313.57, 145.28, 401.43, 195.53, 304.15, 91.87, 105.15, 281.6, 216.42,
      194.02, 131.42, 68.12, 234.72, 266.07, 110.35, 259.73, 305.37, 241.93,
      255.38, 127.73, 116.65, 270.02, 168.45, 84.5, 81.6, 175.37, 128.8, 173.23,
      105.32, 77.05, 92.4, 108.05, 191.57, 131.15, 96.97, 172.72, 280.22,
      205.42, 88.27, 62.43, 22.43, 86.73, 68.05, 282.35, 65.73, 126.1, 226.02,
      76.88, 184.87, 97.77, 84.55, 176.1, 350.22, 325.98, 149.98, 123.73, 68,
      274.43, 78.48, 107.55, 18.9, 184.77, 201.77, 292.9, 300.88, 109.4, 78.53,
      125.32, 125.17, 131.38, 183.93, 89.47, 313.78, 102.37, 302.18, 286.07,
      72.27, 176.08, 178.07, 130.05, 300.22
    ],
    [
      130.12, 225.73, 120.57, 225.4, 289.15, 0, 67.48, 204.13, 191.3, 216.85,
      249.13, 370.48, 198.98, 26.47, 126.38, 90.2, 136.27, 51.62, 17.15, 41.37,
      10.48, 190.97, 156.6, 246.98, 114.18, 140.12, 232.42, 57.38, 239.12,
      241.9, 148.4, 87.23, 78.33, 248.13, 9.67, 157.33, 245.13, 377.77, 341.2,
      27.98, 287.38, 245.1, 253.75, 97.5, 108.07, 85.32, 147.17, 116.92, 44.55,
      367.15, 132.42, 142.83, 23.52, 242.13, 213.05, 27.22, 147.02, 143.6,
      173.17, 249.45, 269.05, 50.6, 271.25, 77.72, 17.75, 73.1, 61.57, 192.87,
      199.4, 46.82, 139.18, 245.15, 247.27, 151.43, 194.95, 139.33, 206.45,
      262.63, 226.58, 223.37, 139.98, 198.93, 217.5, 134.72, 25.85, 119.87,
      229.98, 248, 279.23, 247.63, 254.68, 48.97, 243.02, 196.78, 75.03, 240.88,
      140.62, 225.47, 234.83, 133.65, 81.2, 190.57, 159.3, 184.33, 243.65,
      35.77, 244.43, 206.45, 284.2, 140.5, 131.5, 54.23, 20.23, 235.7, 264.1,
      197.85, 193.78, 199.17, 143.02, 231.02, 41.67, 222.88, 21.53, 54.15,
      341.43, 149.3, 133.8, 399.22, 13.08
    ],
    [
      82.2, 171.62, 66.43, 171.28, 235.02, 60.27, 0, 150.02, 137.17, 162.73,
      195.02, 316.37, 144.87, 70, 72.27, 36.08, 82.15, 32.15, 67.7, 27.47,
      52.72, 136.85, 102.48, 192.85, 146.08, 86, 264.32, 35.87, 185, 187.77,
      94.28, 33.12, 31.45, 194.02, 60.23, 189.23, 191.02, 348.73, 287.07, 71.5,
      233.27, 190.98, 199.63, 50.1, 53.95, 38.42, 93.05, 62.8, 76.45, 360.35,
      164.32, 95.05, 67.03, 188.02, 158.92, 44.48, 99.62, 91.1, 119.03, 195.33,
      300.97, 28.95, 217.12, 30.8, 68.25, 26.2, 29.3, 138.73, 145.27, 32.9,
      85.07, 191.02, 193.13, 97.32, 140.83, 85.22, 152.33, 208.5, 172.47,
      169.23, 85.87, 144.82, 163.37, 80.6, 43.1, 72.47, 175.87, 193.88, 225.12,
      193.52, 200.57, 45.23, 188.9, 142.67, 20.9, 186.77, 86.48, 171.35, 180.7,
      79.53, 113.1, 222.47, 105.18, 130.22, 189.53, 37.32, 190.32, 152.32,
      230.08, 86.38, 77.38, 55.78, 63.77, 181.57, 209.98, 143.72, 139.67,
      145.05, 95.25, 176.9, 76.67, 168.77, 65.07, 48.95, 287.32, 95.17, 79.68,
      345.1, 63.1
    ],
    [
      104.23, 34.9, 110.1, 34.33, 94.12, 205.68, 157.68, 0, 36.67, 21.82, 54.1,
      175.45, 41.38, 215.4, 104.18, 121.72, 90.58, 177.57, 213.12, 172.87,
      198.12, 24.33, 77.03, 51.93, 291.5, 80.57, 361.07, 181.28, 44.08, 46.87,
      64.27, 147.85, 145.47, 57.07, 205.65, 334.65, 50.1, 207.83, 146.17,
      216.92, 92.35, 50.07, 62.8, 130.78, 101.4, 138.42, 100.13, 93.65, 221.87,
      219.43, 309.73, 103.83, 212.45, 47.1, 27.57, 189.9, 124.72, 102.32, 39.72,
      55.62, 308.87, 174.37, 81.83, 168.03, 213.67, 150.23, 163.68, 40.57,
      39.65, 178.32, 76.75, 54.07, 56.4, 83.67, 37.1, 81.53, 29.03, 67.58,
      35.52, 39.22, 99.87, 39.45, 22.47, 81.02, 188.52, 113.72, 34.95, 52.97,
      84.2, 58.22, 58.58, 190.65, 47.98, 34.4, 134.32, 45.85, 93.17, 34.4, 39.8,
      84.38, 258.52, 367.88, 58.28, 32.03, 54.23, 182.72, 53.37, 26.63, 89.17,
      93.05, 110.07, 201.2, 209.18, 43.62, 69.07, 33.62, 38.33, 39.68, 92.23,
      35.98, 222.07, 27.85, 210.47, 194.37, 146.4, 84.38, 86.37, 204.18, 208.52
    ],
    [
      89.45, 41.97, 95.15, 41.65, 116.77, 190.73, 142.73, 34.2, 0, 46.9, 67.45,
      198.1, 17.67, 200.47, 89.17, 106.78, 75.38, 162.62, 198.17, 157.92,
      183.18, 13.63, 62.25, 68.25, 276.55, 65.78, 394.78, 166.33, 61.43, 66.37,
      49.48, 132.92, 130.52, 64.38, 190.7, 319.7, 65.95, 230.48, 168.82, 201.97,
      115, 70.43, 69.98, 116, 86.45, 123.47, 84.93, 78.7, 206.92, 242.08,
      294.78, 88.63, 197.5, 65.87, 29.28, 174.95, 109.93, 87.12, 24.93, 65.68,
      331.52, 159.42, 87.48, 153.08, 198.72, 135.28, 148.73, 9.1, 15.63, 163.37,
      61.97, 61.38, 63.5, 68.45, 8.47, 66.33, 22.7, 82.48, 42.82, 39.6, 84.67,
      15.72, 44.98, 65.8, 173.57, 98.93, 60.03, 66.47, 106.85, 63.88, 70.92,
      175.7, 66.22, 8.1, 119.37, 70.95, 77.97, 41.7, 64.88, 69.18, 243.57,
      352.93, 43.08, 13.07, 59.88, 167.78, 60.68, 22.68, 111.82, 77.85, 95.28,
      186.25, 194.23, 51.93, 83.95, 20.68, 8.8, 15.95, 77.03, 61.08, 207.13,
      39.83, 195.53, 179.42, 169.05, 69.6, 71.15, 226.83, 193.57
    ],
    [
      115.3, 28.78, 121.17, 28.2, 81.7, 216.75, 168.75, 22.83, 47.73, 0, 41.68,
      163.03, 52.45, 226.47, 115.25, 132.78, 101.65, 188.63, 224.18, 183.93,
      209.18, 35.38, 88.1, 39.53, 302.57, 91.62, 348.65, 192.35, 31.67, 34.45,
      75.32, 158.92, 156.53, 51.57, 216.7, 345.7, 37.68, 195.42, 133.75, 227.98,
      79.93, 37.65, 55.73, 141.85, 112.45, 149.48, 111.18, 104.72, 232.93,
      207.02, 320.8, 114.88, 223.52, 34.68, 32.08, 200.95, 135.77, 113.37,
      50.78, 43.2, 296.45, 185.43, 72.25, 179.1, 224.73, 161.28, 174.75, 51.62,
      44.67, 189.37, 87.82, 45.53, 49.33, 94.72, 48.17, 92.6, 33.33, 55.18,
      29.38, 33.08, 110.93, 50.5, 16.33, 92.07, 199.57, 124.78, 22.53, 40.55,
      71.78, 50.83, 46.17, 201.72, 35.57, 45.47, 145.37, 33.43, 104.23, 28.27,
      27.38, 95.45, 269.58, 378.93, 69.35, 43.1, 46.85, 193.78, 46.32, 35.57,
      76.75, 104.12, 121.13, 212.27, 220.23, 37.48, 56.65, 44.68, 49.38, 50.75,
      103.28, 23.57, 233.13, 21.72, 221.53, 205.43, 133.98, 95.43, 97.42,
      191.77, 219.58
    ],
    [
      149.8, 45.87, 155.5, 34.08, 68.52, 251.08, 203.08, 53.85, 70.53, 40.52, 0,
      149.85, 82.82, 260.8, 149.52, 167.12, 135.72, 222.97, 258.52, 218.27,
      243.52, 66.42, 122.6, 11.4, 336.9, 126.12, 335.48, 226.68, 32.37, 12.12,
      109.82, 193.25, 190.87, 20.78, 251.03, 380.03, 14.85, 182.23, 120.57,
      262.32, 66.77, 10.15, 30.65, 176.35, 146.78, 183.82, 145.27, 139.05,
      267.27, 193.83, 355.13, 148.97, 257.85, 28.43, 51.08, 235.28, 170.27,
      147.45, 85.28, 11.7, 283.27, 219.77, 55.45, 213.43, 259.07, 195.62,
      209.08, 73.68, 62.6, 223.7, 122.32, 29.62, 26.72, 128.8, 77.03, 126.67,
      51.27, 39.13, 37.52, 54.67, 145, 83.75, 47.37, 126.15, 233.9, 159.28,
      38.67, 21.62, 58.62, 31.85, 27.58, 236.05, 9.27, 76.02, 179.7, 19.67,
      138.32, 42.88, 28.22, 129.53, 303.92, 374.53, 103.43, 73.42, 15.43,
      228.12, 16.88, 53.5, 63.57, 138.2, 155.63, 246.6, 254.58, 53.15, 40.6,
      75.72, 71.12, 84, 137.37, 32.08, 267.47, 48.7, 255.87, 239.77, 120.82,
      129.93, 131.5, 178.6, 253.92
    ],
    [
      283.5, 187.7, 293.82, 175.92, 110.83, 384.33, 336.33, 190.42, 211.53,
      177.07, 158.78, 0, 220.03, 394.05, 282.83, 300.37, 269.23, 356.22, 391.77,
      351.52, 376.77, 202.98, 255.68, 159.88, 340.67, 259.22, 185.63, 359.93,
      179.38, 155.65, 242.92, 326.5, 323.27, 160.4, 384.3, 243.85, 165.85,
      32.38, 34.67, 395.57, 90.22, 154.77, 172.43, 306.7, 280.03, 316.22,
      278.78, 272.3, 357.6, 43.98, 358.9, 282.48, 391.1, 178.8, 192.1, 368.53,
      249.8, 280.97, 218.37, 155.07, 133.42, 355.05, 197.28, 346.68, 392.32,
      328.03, 342.78, 214.68, 203.6, 356.95, 255.4, 171.45, 168.55, 262.32,
      215.75, 260.18, 192.27, 164, 179.35, 194.98, 278.52, 218.08, 183.92,
      259.67, 367.17, 286.82, 175.22, 149.37, 112.13, 173.68, 155, 369.3,
      152.68, 213.05, 312.95, 163.82, 271.82, 184.72, 171.5, 263.03, 319.15,
      224.67, 236.93, 210.68, 154.95, 361.37, 165.43, 194.5, 114.18, 271.7,
      288.72, 379.85, 387.83, 196.35, 165.47, 212.27, 212.12, 218.33, 270.88,
      176.42, 404.35, 189.32, 389.12, 373.02, 31.7, 263.03, 265, 28.75, 387.17
    ],
    [
      96.8, 58.65, 102.5, 58.32, 127.42, 198.08, 150.08, 42.4, 21.83, 55.12,
      84.13, 208.75, 0, 207.82, 96.53, 114.13, 82.73, 169.97, 205.52, 165.28,
      190.53, 21.83, 69.6, 84.93, 283.9, 73.13, 402.13, 173.68, 77.38, 80.15,
      56.83, 140.27, 137.87, 81.05, 198.05, 327.05, 82.63, 241.12, 179.45,
      209.32, 125.65, 83.37, 86.67, 123.35, 93.8, 130.82, 92.28, 86.05, 214.28,
      252.73, 302.13, 95.98, 204.87, 80.4, 45.97, 182.3, 117.28, 94.47, 32.28,
      82.37, 342.15, 166.77, 104.17, 160.45, 206.07, 142.63, 156.1, 25.78,
      32.32, 170.72, 69.32, 78.07, 80.18, 75.82, 22.27, 73.68, 39.37, 99.15,
      59.5, 56.28, 92.02, 4.57, 55.75, 73.17, 180.92, 106.28, 68.25, 83.13,
      117.5, 80.55, 87.6, 183.05, 81.28, 23.57, 126.72, 79.15, 85.32, 58.38,
      73.08, 76.53, 250.92, 360.28, 50.43, 20.53, 76.57, 175.13, 77.37, 39.37,
      122.47, 85.2, 102.63, 193.6, 201.58, 57.48, 100.63, 28.9, 16.12, 16.32,
      84.38, 69.28, 214.48, 56.52, 202.88, 186.78, 179.7, 76.95, 78.52, 237.48,
      200.93
    ],
    [
      148.27, 238.37, 133.18, 238.03, 301.77, 32.58, 80.1, 216.77, 203.92,
      229.48, 261.77, 383.12, 211.62, 0, 139.02, 102.83, 148.9, 64.23, 33, 54,
      31.57, 203.6, 169.23, 259.6, 112.08, 152.75, 230.32, 70, 251.75, 254.52,
      161.03, 99.87, 96.5, 260.77, 26.15, 155.23, 257.77, 375.68, 353.82, 4.97,
      300.02, 257.73, 266.38, 115.65, 120.7, 103.47, 159.8, 129.55, 42.47,
      365.05, 130.32, 160.98, 17.08, 254.77, 225.67, 39.85, 165.17, 157.85,
      185.78, 262.08, 266.97, 68.75, 283.87, 90.33, 27.75, 91.25, 79.72, 205.48,
      212.02, 59.43, 151.82, 257.77, 259.88, 164.07, 207.58, 151.97, 219.08,
      275.25, 239.22, 235.98, 152.62, 211.57, 230.12, 147.35, 38.47, 138.02,
      242.62, 260.63, 291.87, 260.27, 267.32, 61.6, 255.65, 209.42, 87.65,
      253.52, 153.23, 238.1, 247.45, 146.28, 79.1, 188.47, 171.93, 196.97,
      256.28, 48.38, 257.07, 219.07, 296.83, 153.13, 144.13, 66.87, 19, 248.32,
      276.73, 210.47, 206.42, 211.8, 161.17, 243.65, 49.65, 235.52, 25.72,
      66.77, 354.07, 161.92, 146.43, 379.58, 24.48
    ],
    [
      27.43, 123.98, 29.78, 123.65, 186.97, 126.38, 78.38, 101.97, 89.55,
      114.68, 146.97, 268.32, 97.23, 136.1, 0, 42.42, 28.72, 98.27, 133.82,
      93.57, 118.82, 88.8, 54.43, 144.8, 212.2, 37.95, 330.42, 101.98, 136.95,
      139.72, 46.23, 68.55, 66.17, 146.38, 126.33, 255.33, 142.97, 300.68,
      239.02, 137.62, 185.22, 142.93, 152, 53.98, 22.08, 59.12, 37.1, 12.65,
      142.57, 312.3, 230.43, 40.28, 133.15, 139.97, 111.3, 110.58, 47.92, 35.17,
      71, 147.7, 367.07, 95.07, 169.48, 88.73, 134.37, 70.92, 84.38, 91.1,
      97.63, 99, 37.02, 143.38, 145.5, 49.75, 93.2, 34.07, 104.7, 160.45,
      124.83, 121.62, 29.92, 97.18, 115.32, 33.85, 109.2, 36.92, 127.82, 145.83,
      177.07, 145.88, 151.45, 111.35, 140.85, 95.03, 55, 138.72, 37.18, 123.72,
      132.65, 31.05, 179.22, 288.57, 56.47, 82.58, 141.9, 103.42, 142.68, 104.7,
      182.03, 37.07, 40.45, 121.9, 129.88, 133.95, 161.93, 95.67, 92.03, 97.42,
      40.48, 128.85, 142.77, 120.72, 131.17, 115.07, 239.27, 47.13, 24.62,
      297.05, 129.22
    ],
    [
      51.95, 141.37, 36.2, 141.03, 204.78, 91.48, 43.48, 119.77, 106.93, 132.48,
      164.77, 286.12, 114.62, 101.2, 42.02, 0, 51.9, 63.37, 98.92, 58.67, 83.92,
      106.6, 72.23, 162.6, 177.3, 55.75, 295.52, 67.08, 154.75, 157.53, 64.03,
      33.65, 31.27, 163.77, 91.43, 220.43, 160.77, 318.5, 256.83, 102.72,
      203.02, 160.73, 169.38, 25.35, 23.7, 24.22, 62.8, 32.55, 107.67, 330.1,
      195.53, 64.82, 98.25, 157.77, 128.68, 75.68, 72.28, 60.87, 88.8, 165.08,
      332.17, 60.17, 186.88, 53.83, 99.47, 36.02, 49.48, 108.48, 115.03, 64.1,
      54.82, 160.77, 162.9, 67.07, 110.58, 54.97, 122.08, 178.25, 142.22, 139,
      55.62, 114.57, 133.13, 50.35, 74.3, 47.72, 145.62, 163.63, 194.87, 163.27,
      170.32, 76.45, 158.65, 112.42, 20.1, 156.52, 56.25, 141.1, 150.47, 49.28,
      144.32, 253.67, 74.93, 99.97, 159.28, 68.52, 160.07, 122.08, 199.83,
      56.13, 47.13, 87, 94.97, 151.33, 179.73, 113.48, 109.42, 114.8, 65,
      146.65, 107.87, 138.52, 96.27, 80.17, 257.07, 64.93, 49.43, 314.85, 94.32
    ],
    [
      29.9, 106.85, 40.45, 106.52, 170.27, 136.03, 88.03, 85.25, 72.42, 97.97,
      130.25, 251.6, 80.1, 145.75, 28.53, 52.07, 0, 107.92, 143.47, 103.22,
      128.47, 72.08, 43.57, 128.08, 221.85, 36.93, 340.08, 111.63, 120.23,
      123.02, 36.05, 78.2, 73.02, 129.25, 136, 265, 126.25, 283.98, 222.3,
      147.27, 168.5, 126.22, 134.87, 56.45, 31.75, 65.97, 18.72, 24, 152.22,
      295.58, 240.08, 20.75, 142.8, 123.25, 94.17, 120.25, 50.37, 17.25, 60.8,
      130.57, 376.72, 104.72, 152.35, 98.38, 144.02, 77.78, 92.53, 73.97, 80.5,
      108.67, 33.13, 126.25, 128.37, 34.38, 76.07, 18.7, 87.57, 143.73, 107.7,
      104.48, 15.9, 80.05, 98.62, 15.83, 118.87, 39.38, 111.1, 129.12, 160.35,
      128.75, 135.8, 121, 124.13, 77.9, 64.67, 122, 10.05, 106.58, 115.95,
      13.23, 188.87, 298.23, 40.42, 65.45, 124.77, 113.07, 125.55, 87.57,
      165.32, 9.95, 50.12, 131.55, 139.53, 116.82, 145.22, 78.95, 74.9, 80.28,
      29.4, 112.13, 152.42, 104, 140.82, 124.72, 222.55, 39.85, 3.87, 280.33,
      138.87
    ],
    [
      104.6, 196.25, 91.08, 195.92, 259.67, 52.38, 38, 174.65, 161.82, 187.37,
      219.65, 341, 169.52, 62.12, 96.9, 60.73, 106.78, 0, 59.82, 19.58, 44.83,
      161.48, 127.12, 217.5, 133.6, 110.63, 251.83, 26.83, 209.63, 212.42,
      118.93, 57.75, 52.82, 218.65, 52.35, 176.75, 215.65, 373.38, 311.72,
      63.62, 257.9, 215.62, 224.27, 71.97, 78.58, 59.8, 117.68, 87.43, 63.97,
      384.98, 151.83, 117.3, 59.15, 212.65, 183.57, 36.6, 121.5, 115.75, 143.68,
      219.97, 288.47, 13.77, 241.77, 48.23, 60.37, 47.58, 36.05, 163.38, 169.92,
      20.83, 109.72, 215.67, 217.78, 121.97, 165.47, 109.85, 176.97, 233.15,
      197.1, 193.88, 110.5, 169.45, 188.02, 105.23, 35.22, 94.35, 200.5, 218.52,
      249.75, 218.15, 225.2, 37.35, 213.55, 167.3, 45.55, 211.42, 111.13,
      195.98, 205.35, 104.18, 100.62, 209.98, 129.82, 154.85, 214.17, 29.43,
      214.97, 176.97, 254.72, 111.02, 102.03, 42.1, 55.88, 206.22, 234.62,
      168.37, 164.3, 169.7, 117.5, 201.55, 64.17, 193.42, 57.18, 37.17, 311.97,
      119.82, 104.32, 369.75, 55.22
    ],
    [
      141.37, 233, 127.83, 232.67, 296.42, 16.58, 74.73, 211.4, 198.55, 224.12,
      256.4, 377.75, 206.25, 28.42, 133.65, 97.47, 143.53, 58.87, 0, 48.63,
      26.2, 198.23, 163.87, 254.23, 117.18, 147.38, 235.42, 64.63, 246.38,
      249.15, 155.67, 94.5, 89.58, 255.4, 17.92, 160.33, 252.4, 380.77, 348.45,
      22.58, 294.65, 252.37, 261.02, 108.73, 115.33, 96.57, 154.43, 124.18,
      47.55, 370.15, 135.42, 154.07, 25.47, 249.4, 220.32, 34.48, 158.27,
      152.48, 180.42, 256.72, 272.05, 61.85, 278.5, 84.97, 7.52, 84.35, 72.82,
      200.12, 206.65, 54.07, 146.45, 252.4, 254.52, 158.7, 202.22, 146.6,
      213.72, 269.88, 233.85, 230.63, 147.25, 206.2, 224.75, 141.98, 33.1,
      131.12, 237.25, 255.27, 286.5, 254.9, 261.95, 56.23, 250.28, 204.05,
      82.28, 248.15, 147.87, 232.73, 242.08, 140.92, 84.2, 193.57, 166.57,
      191.6, 250.92, 43.02, 251.7, 213.7, 291.47, 147.77, 138.77, 61.5, 18.65,
      242.97, 271.37, 205.1, 201.05, 206.43, 154.27, 238.28, 56, 230.15, 18.05,
      61.42, 348.7, 156.57, 141.07, 384.68, 10.17
    ],
    [
      102.77, 192.17, 87, 191.83, 255.58, 39.15, 33.92, 170.57, 157.73, 183.28,
      215.57, 336.92, 165.42, 48.87, 92.82, 56.63, 102.7, 18.05, 46.58, 0,
      31.58, 157.4, 123.03, 213.42, 131.98, 106.55, 250.2, 23.82, 205.55,
      208.33, 114.83, 53.67, 51.2, 214.57, 39.1, 175.12, 211.57, 369.3, 307.63,
      50.38, 253.82, 211.53, 220.18, 70.35, 74.5, 58.17, 113.6, 83.35, 62.35,
      380.9, 150.22, 115.62, 45.92, 208.57, 179.48, 23.35, 119.87, 111.67,
      139.6, 215.88, 286.85, 23.47, 237.68, 44.15, 47.13, 45.95, 34.42, 159.3,
      165.83, 7.5, 105.62, 211.58, 213.7, 117.87, 161.38, 105.77, 172.88,
      229.07, 193.02, 189.8, 106.42, 165.37, 183.93, 101.15, 21.97, 92.72,
      196.42, 214.43, 245.67, 214.07, 221.12, 24.12, 209.45, 163.22, 41.47,
      207.32, 107.05, 191.9, 201.27, 100.08, 99, 208.35, 125.73, 150.77, 210.08,
      16.18, 210.87, 172.88, 250.63, 106.93, 97.93, 34.67, 42.65, 202.13,
      230.53, 164.28, 160.22, 165.6, 115.8, 197.45, 62.55, 189.32, 43.93, 26.85,
      307.87, 115.73, 100.23, 365.65, 41.98
    ],
    [
      129.33, 219.42, 114.25, 219.08, 282.83, 10.18, 61.17, 197.82, 184.98,
      210.53, 242.82, 364.17, 192.67, 26.12, 120.07, 83.88, 129.95, 45.28,
      23.82, 35.05, 0, 184.65, 150.28, 240.65, 114.88, 133.8, 233.12, 51.07,
      232.8, 235.58, 142.08, 80.92, 77.55, 241.82, 16.35, 158.03, 238.82,
      396.55, 334.88, 27.63, 281.07, 238.78, 247.43, 96.7, 101.75, 84.52,
      140.85, 110.6, 45.25, 367.83, 133.12, 142.03, 23.17, 235.82, 206.73, 20.9,
      146.22, 138.92, 166.85, 243.13, 269.75, 49.82, 264.93, 71.4, 24.37, 72.3,
      60.77, 186.53, 193.08, 40.5, 132.87, 238.82, 240.95, 145.12, 188.63,
      133.02, 200.13, 256.3, 220.27, 217.05, 133.67, 192.62, 211.18, 128.4,
      19.52, 119.07, 223.67, 241.68, 272.92, 241.32, 248.37, 42.65, 236.7,
      190.47, 68.72, 234.57, 134.3, 219.15, 228.52, 127.33, 81.9, 191.25,
      152.98, 178.02, 237.33, 29.43, 238.12, 200.13, 277.88, 134.18, 125.18,
      47.92, 19.88, 229.38, 257.78, 191.53, 187.47, 192.85, 142.22, 224.7,
      47.02, 216.57, 21.18, 47.83, 335.12, 142.98, 127.48, 392.9, 19.23
    ],
    [
      88.17, 49.68, 94.03, 49.12, 108.9, 189.62, 141.62, 23.88, 15.18, 36.6,
      68.88, 190.23, 19.9, 199.35, 88.13, 105.67, 74.52, 161.5, 197.05, 156.82,
      182.07, 0, 60.97, 66.72, 275.43, 64.5, 375.85, 165.22, 58.87, 61.65, 48.2,
      131.8, 129.4, 71.85, 189.58, 318.58, 64.88, 222.62, 160.95, 200.85,
      107.13, 64.85, 77.58, 114.73, 85.33, 122.35, 84.07, 77.58, 205.8, 234.22,
      293.67, 87.77, 196.38, 61.88, 42.93, 173.83, 108.65, 86.25, 23.67, 70.4,
      323.65, 158.3, 96.62, 151.97, 197.6, 134.17, 147.63, 22.73, 29.27, 162.25,
      60.7, 68.85, 71.18, 67.6, 15.62, 65.47, 36.33, 82.37, 50.3, 53.25, 83.8,
      17.97, 37.25, 64.95, 172.45, 97.65, 49.73, 67.75, 98.98, 73, 73.37,
      174.58, 62.77, 12.85, 118.25, 60.63, 77.1, 49.18, 54.58, 68.33, 242.45,
      351.82, 42.23, 15.97, 69.02, 166.67, 68.15, 36.32, 103.95, 77, 94.02,
      185.13, 193.12, 58.4, 83.85, 14.8, 16.85, 18.2, 76.17, 50.77, 206.02,
      42.63, 194.42, 178.3, 161.18, 68.32, 70.3, 218.97, 192.45
    ],
    [
      54.88, 100.07, 60.75, 99.73, 163.07, 156.33, 108.33, 78.05, 65.63, 90.77,
      123.05, 244.4, 73.32, 166.05, 54.83, 72.37, 50.55, 128.22, 163.77, 123.52,
      148.77, 64.88, 0, 120.88, 242.15, 26.15, 360.38, 131.93, 113.03, 115.82,
      24.37, 98.5, 96.12, 122.47, 156.3, 285.3, 119.05, 276.78, 215.12, 167.57,
      161.3, 119.02, 128.08, 81.43, 52.03, 89.07, 60.1, 44.3, 172.52, 288.38,
      260.38, 61.1, 163.1, 116.05, 87.38, 140.53, 75.37, 62.28, 44.72, 123.78,
      377.82, 125.02, 145.58, 109.67, 164.32, 100.87, 114.33, 67.2, 73.73,
      128.95, 27.4, 119.48, 121.6, 40.48, 69.28, 41.5, 80.78, 136.53, 100.92,
      97.7, 58.53, 73.27, 91.42, 40.98, 139.17, 64.37, 103.9, 121.92, 153.15,
      121.97, 127.53, 141.3, 116.93, 71.12, 84.95, 114.8, 53.15, 99.8, 108.75,
      44.37, 209.17, 318.52, 44.93, 58.67, 117.98, 133.37, 118.78, 80.78,
      158.12, 53.03, 45.32, 151.85, 159.83, 110.03, 138.02, 71.77, 68.12, 73.52,
      49.5, 104.93, 172.72, 96.8, 161.12, 145.02, 215.35, 20.02, 46.33, 273.13,
      159.17
    ],
    [
      145.35, 47.7, 151.22, 35.9, 68.4, 246.8, 198.8, 52.87, 72.37, 39.53,
      11.95, 149.75, 84.65, 256.52, 145.3, 162.83, 131.68, 218.68, 254.22,
      213.98, 239.23, 65.43, 118.15, 0, 332.62, 121.67, 335.37, 222.38, 27.9,
      6.65, 105.37, 188.97, 186.58, 23.92, 246.75, 375.75, 8.37, 182.12, 120.45,
      258.03, 66.65, 16.48, 28.37, 171.9, 142.5, 179.53, 141.23, 134.77, 262.98,
      193.73, 350.85, 144.93, 253.57, 22.07, 52.92, 231, 165.82, 143.42, 80.83,
      19.67, 283.15, 215.48, 57.28, 209.15, 254.77, 191.33, 204.8, 75.5, 64.43,
      219.42, 117.87, 24.93, 21.87, 124.77, 78.85, 122.65, 53.1, 43.35, 39.33,
      56.5, 140.97, 80.55, 46.38, 122.12, 229.62, 154.83, 37.68, 27.03, 58.5,
      33.68, 31.8, 231.77, 8.02, 75.5, 175.42, 18.68, 134.28, 44.72, 19.6,
      125.5, 299.63, 374.42, 99.4, 75.23, 20.58, 223.83, 16.32, 55.33, 63.47,
      134.17, 151.18, 242.32, 250.28, 48.67, 44.83, 74.73, 72.93, 80.78, 133.33,
      25.57, 263.18, 50.52, 251.58, 235.48, 120.7, 125.48, 127.47, 178.48,
      249.63
    ],
    [
      213.9, 315.65, 210.48, 315.33, 379.07, 120.03, 157.4, 294.07, 281.22,
      306.77, 339.05, 352.77, 288.92, 118.33, 216.32, 180.13, 226.18, 137.5,
      125.73, 138.98, 124.3, 280.9, 246.52, 336.9, 0, 230.03, 176.98, 146.23,
      329.05, 331.82, 238.33, 171.12, 162.12, 338.07, 118.87, 101.9, 335.05,
      322.35, 387.1, 120.13, 377.3, 335.02, 343.67, 181.28, 197.98, 169.1,
      230.1, 206.83, 76.77, 311.72, 19.37, 226.6, 103.55, 332.07, 302.97,
      132.58, 230.8, 227.38, 263.08, 339.37, 213.63, 134.38, 361.17, 167.63,
      125.27, 156.88, 145.35, 282.78, 289.32, 142.47, 229.12, 335.07, 337.18,
      241.37, 284.87, 229.25, 296.37, 352.55, 316.5, 313.28, 223.43, 288.85,
      307.42, 224.65, 131.2, 203.65, 319.9, 337.92, 369.17, 337.57, 344.6,
      148.47, 332.95, 286.72, 164.95, 330.82, 230.53, 315.38, 324.75, 223.58,
      38.32, 135.13, 249.23, 274.25, 333.57, 133.55, 334.37, 296.37, 374.12,
      230.42, 221.43, 152.03, 111.72, 325.62, 354.02, 287.77, 283.72, 289.1,
      226.8, 320.95, 102.48, 312.82, 118.45, 151.95, 384.12, 239.22, 223.72,
      326.27, 122.92
    ],
    [
      36.27, 101.15, 42.13, 100.82, 164.15, 137.72, 89.72, 79.13, 66.72, 91.85,
      124.13, 245.48, 74.4, 147.43, 36.23, 53.75, 38.73, 109.6, 145.15, 104.9,
      130.17, 65.97, 24.47, 121.97, 223.53, 0, 341.77, 113.32, 114.12, 116.88,
      23.4, 79.88, 77.5, 123.55, 137.68, 266.68, 120.13, 277.85, 216.18, 148.95,
      162.38, 120.1, 129.17, 62.82, 33.43, 70.45, 47.12, 25.68, 153.9, 289.47,
      241.77, 49.12, 144.48, 117.13, 88.47, 121.93, 56.75, 45.17, 48.17, 124.87,
      378.88, 106.4, 146.67, 100.07, 145.7, 82.27, 95.72, 68.27, 74.82, 110.35,
      14.18, 120.55, 122.68, 32.55, 70.37, 33.57, 81.87, 137.62, 102, 98.78,
      39.93, 74.35, 92.48, 33.03, 120.55, 45.75, 104.98, 123, 154.23, 123.05,
      128.62, 122.68, 118.02, 72.2, 66.35, 115.88, 42.57, 100.88, 109.82, 26.45,
      190.55, 299.92, 42.28, 59.75, 119.07, 114.77, 119.85, 81.87, 159.2, 42.45,
      40.03, 133.23, 141.22, 111.12, 139.1, 72.83, 69.2, 74.58, 41.55, 106.02,
      154.1, 97.88, 142.5, 126.4, 216.43, 14.1, 34.63, 274.22, 140.55
    ],
    [
      322.53, 376.87, 319.12, 365.07, 300, 228.68, 266.03, 379.57, 389.85,
      366.23, 347.95, 189.5, 397.55, 226.97, 324.95, 288.77, 334.83, 246.13,
      234.37, 247.62, 232.93, 389.53, 355.17, 349.03, 168.47, 338.68, 0, 254.88,
      368.55, 344.8, 346.97, 279.77, 270.77, 349.55, 227.52, 71.67, 355, 159.08,
      223.83, 228.77, 279.38, 343.92, 361.6, 289.92, 306.63, 277.73, 338.75,
      315.48, 185.42, 148.47, 186.7, 335.25, 212.2, 367.97, 381.25, 241.22,
      339.43, 336.02, 371.72, 344.22, 71.37, 243.03, 386.45, 276.27, 233.92,
      265.52, 253.98, 391.42, 397.95, 251.12, 337.75, 360.6, 357.72, 350,
      393.52, 337.9, 381.43, 353.15, 368.5, 384.15, 332.07, 397.5, 373.08,
      333.28, 239.83, 312.28, 364.38, 338.53, 301.3, 362.85, 344.15, 257.1,
      341.83, 395.35, 273.58, 352.98, 339.17, 373.88, 360.65, 332.22, 146.95,
      50.4, 357.87, 382.9, 344.12, 242.2, 354.6, 383.67, 303.35, 339.07, 330.07,
      260.67, 220.37, 385.52, 354.63, 396.4, 392.35, 397.73, 335.43, 365.58,
      211.12, 378.47, 227.1, 260.58, 220.87, 347.85, 332.37, 163, 231.55
    ],
    [
      112.9, 202.77, 97.6, 202.43, 266.18, 57.67, 44.52, 181.17, 168.33, 193.88,
      226.17, 347.52, 176.03, 67.38, 103.42, 67.25, 113.3, 27.97, 65.1, 24.85,
      50.1, 168, 133.63, 224.02, 141.9, 117.15, 260.13, 0, 216.15, 218.93,
      125.45, 64.27, 61.13, 225.17, 57.62, 185.05, 222.17, 379.9, 318.23, 68.9,
      264.42, 222.13, 230.78, 80.28, 85.1, 68.1, 124.2, 93.95, 72.27, 391.5,
      160.13, 125.62, 64.43, 219.17, 190.08, 41.87, 129.8, 122.27, 150.2,
      226.48, 296.78, 33.38, 248.28, 52.02, 65.65, 55.88, 44.35, 169.9, 176.43,
      20.58, 116.23, 222.18, 224.3, 128.48, 171.98, 116.37, 183.48, 239.67,
      203.62, 200.4, 117.02, 175.97, 194.53, 111.75, 40.48, 102.65, 207.02,
      225.03, 256.27, 224.67, 231.72, 20.83, 220.07, 173.82, 52.07, 217.93,
      117.65, 202.5, 211.87, 110.7, 108.92, 218.28, 136.33, 161.37, 220.68,
      34.7, 221.48, 183.48, 261.23, 117.53, 108.55, 22.97, 61.17, 212.73,
      241.13, 174.88, 170.82, 176.22, 125.8, 208.07, 72.48, 199.93, 62.45, 17.7,
      318.48, 126.33, 110.83, 376.27, 60.5
    ],
    [
      135.28, 33.9, 141.15, 22.1, 79.42, 236.73, 188.73, 42.82, 58.55, 29.47,
      29.82, 160.77, 70.85, 246.45, 135.23, 152.77, 121.63, 208.62, 244.17,
      203.92, 229.17, 55.37, 108.08, 30.62, 322.55, 111.6, 346.38, 212.33, 0,
      28.73, 95.32, 178.9, 176.52, 26.73, 236.68, 365.68, 20.05, 193.13, 131.47,
      247.97, 77.67, 34.12, 32.45, 161.83, 132.43, 169.47, 131.18, 124.7,
      252.92, 204.75, 340.78, 134.88, 243.5, 9.55, 39.12, 220.93, 155.77,
      133.37, 70.77, 29.38, 294.17, 205.42, 51.17, 199.08, 244.72, 181.27,
      194.73, 61.7, 50.62, 209.35, 107.8, 22.38, 26.07, 114.7, 65.05, 112.58,
      39.28, 45.13, 25.53, 42.68, 130.92, 70.48, 36.32, 112.05, 219.55, 144.77,
      21.77, 28.82, 69.52, 27.57, 33.58, 221.7, 28.57, 64.05, 165.35, 34.4,
      124.22, 30.9, 22.22, 115.43, 289.57, 385.43, 89.33, 61.43, 23.57, 213.77,
      23.03, 41.52, 74.48, 124.1, 141.12, 232.25, 240.23, 42.5, 46.62, 64.67,
      59.13, 70.73, 123.28, 18.77, 253.12, 36.72, 241.52, 225.42, 131.72,
      115.43, 117.4, 189.5, 239.57
    ],
    [
      143.33, 43.77, 149.2, 31.97, 62.97, 244.78, 196.78, 50.87, 68.42, 37.52,
      10.85, 144.3, 80.72, 254.5, 143.28, 160.82, 129.68, 216.67, 252.22,
      211.97, 237.22, 63.42, 116.13, 6.48, 330.6, 119.65, 329.92, 220.38, 33.4,
      0, 103.37, 186.95, 184.57, 21, 244.73, 373.73, 13.52, 176.68, 115.02,
      256.02, 61.2, 15.55, 27.43, 169.88, 140.48, 177.52, 139.23, 132.75,
      260.97, 188.28, 348.83, 142.93, 251.55, 23.73, 48.98, 228.98, 163.82,
      141.42, 78.82, 17.55, 277.72, 213.47, 53.35, 207.13, 252.77, 189.32,
      202.78, 71.57, 60.48, 217.4, 115.85, 27.5, 24.6, 122.75, 74.92, 120.63,
      49.15, 36.43, 35.4, 52.55, 138.97, 78.53, 44.37, 120.1, 227.6, 152.82,
      35.67, 23.08, 53.05, 29.73, 27.85, 229.75, 2.57, 73.92, 173.4, 16.67,
      132.27, 40.77, 21.93, 123.48, 297.62, 368.97, 97.38, 71.3, 20.63, 221.82,
      14.77, 51.38, 58.02, 132.15, 149.17, 240.3, 248.28, 49.22, 37.92, 72.72,
      69, 78.78, 131.33, 27.93, 261.17, 46.58, 249.57, 233.47, 115.25, 123.48,
      125.45, 173.03, 247.62
    ],
    [
      45.23, 86.1, 51.1, 85.78, 149.1, 146.68, 98.68, 64.08, 51.67, 76.8,
      109.08, 230.43, 59.37, 156.42, 45.2, 62.73, 41.03, 118.57, 154.12, 113.87,
      139.13, 50.92, 21.95, 106.93, 232.5, 21.57, 350.73, 122.28, 99.07, 101.85,
      0, 88.87, 86.47, 108.52, 146.65, 275.65, 105.08, 262.82, 201.15, 157.92,
      147.33, 105.05, 114.12, 71.8, 42.4, 79.42, 50.58, 34.65, 162.87, 274.42,
      250.73, 51.57, 153.45, 102.08, 73.42, 130.9, 65.72, 54.13, 33.12, 109.82,
      363.85, 115.37, 131.62, 109.03, 154.67, 91.23, 104.68, 53.23, 59.77,
      119.32, 17.75, 105.52, 107.63, 30.97, 55.33, 31.98, 66.83, 122.58, 86.95,
      83.73, 48.9, 59.32, 77.45, 31.47, 129.52, 54.72, 89.93, 107.95, 139.18,
      108.02, 113.58, 131.65, 102.98, 57.17, 75.32, 100.85, 43.62, 85.83, 94.78,
      34.83, 199.52, 308.88, 31.88, 44.72, 104.02, 123.73, 104.82, 66.82,
      144.15, 43.5, 51.07, 142.2, 150.18, 96.07, 124.05, 57.8, 54.17, 59.55,
      39.97, 90.98, 163.08, 82.85, 151.48, 135.37, 201.4, 25.38, 36.8, 259.18,
      149.52
    ],
    [
      73.68, 167.25, 62.07, 166.92, 230.65, 83.02, 39.75, 145.65, 132.8, 158.37,
      190.63, 311.98, 140.5, 97.47, 67.9, 31.72, 77.78, 55.75, 95.18, 54.93,
      80.18, 132.48, 98.12, 188.48, 162.22, 81.62, 280.45, 63.35, 180.63, 183.4,
      89.92, 0, 20.68, 189.65, 87.7, 205.37, 186.63, 344.37, 282.7, 98.98,
      228.9, 186.62, 195.25, 41.05, 49.58, 28.88, 88.67, 58.43, 92.58, 355.97,
      180.45, 86.38, 94.52, 183.65, 154.55, 71.95, 90.57, 87.15, 114.67, 190.97,
      317.08, 43.48, 212.75, 49.2, 95.73, 15.83, 31.23, 134.37, 140.9, 60.37,
      80.7, 186.65, 188.77, 92.95, 136.47, 80.83, 147.97, 204.13, 168.08,
      164.87, 81.5, 140.45, 159, 76.23, 70.57, 63.42, 171.48, 189.52, 220.75,
      189.15, 196.2, 72.72, 184.53, 138.3, 15.27, 182.4, 82.12, 166.98, 176.33,
      75.17, 129.23, 238.6, 100.82, 125.85, 185.15, 64.78, 185.95, 147.95,
      225.72, 82.02, 73.02, 83.27, 91.23, 177.2, 205.62, 139.35, 135.3, 140.68,
      86.57, 172.53, 92.78, 164.4, 92.53, 76.43, 282.95, 90.8, 75.32, 340.73,
      90.58
    ],
    [
      60.8, 166.85, 61.35, 166.52, 230.25, 78.87, 39.15, 145.25, 132.4, 157.97,
      190.25, 311.6, 140.1, 92.97, 67.5, 31.32, 75.53, 51.58, 89.72, 53.07,
      78.32, 132.08, 97.72, 188.08, 158.07, 81.23, 276.28, 60.33, 180.23, 183,
      89.52, 22.02, 0, 189.25, 82.85, 201.2, 186.25, 343.97, 282.3, 94.47,
      228.5, 186.22, 194.87, 28.17, 49.18, 15.98, 77, 58.03, 88.43, 355.58,
      176.3, 73.5, 90, 183.25, 154.15, 70.1, 77.68, 74.27, 114.27, 190.57,
      312.93, 39.33, 212.35, 48.6, 92.07, 12.32, 27.07, 133.97, 140.5, 56.57,
      80.3, 186.25, 188.37, 91.82, 136.07, 80.87, 147.57, 203.73, 167.7, 164.47,
      70.32, 140.05, 158.6, 75.83, 68.72, 50.53, 171.1, 189.12, 220.35, 188.75,
      195.8, 70.85, 184.13, 137.9, 26.58, 182, 81.72, 166.58, 175.93, 74.77,
      125.08, 234.43, 100.42, 125.45, 184.77, 60.65, 185.55, 147.55, 225.32,
      81.62, 72.62, 79.13, 86.73, 176.8, 205.22, 138.95, 134.9, 140.28, 73.68,
      172.13, 88.63, 164, 90.67, 72.9, 282.55, 90.4, 71.43, 340.33, 86.88
    ],
    [
      144.42, 41.63, 150.12, 29.83, 66.18, 245.7, 197.7, 59.88, 65.15, 52.42,
      18.1, 147.52, 77.45, 255.42, 144.13, 161.73, 130.33, 217.58, 253.13,
      212.88, 238.13, 72.45, 117.22, 22.9, 331.52, 120.73, 333.15, 221.3, 33.32,
      22.5, 104.43, 187.87, 185.48, 0, 245.67, 374.67, 27.12, 179.9, 118.23,
      256.93, 64.42, 17.55, 14.65, 170.97, 141.4, 178.43, 139.88, 133.67,
      261.88, 191.5, 349.75, 143.58, 252.47, 36.18, 45.72, 229.9, 164.88,
      142.07, 79.9, 16.08, 280.93, 214.38, 48.35, 208.05, 253.68, 190.23, 203.7,
      68.3, 57.22, 218.32, 116.93, 26.47, 12.85, 123.42, 71.65, 121.28, 45.88,
      31.9, 33.27, 48.6, 139.62, 78.38, 49.6, 120.77, 228.53, 153.9, 44.32,
      17.62, 56.27, 24.73, 20.35, 230.67, 22.33, 70.65, 174.32, 32.9, 132.93,
      38.65, 40.83, 124.15, 298.53, 372.18, 98.05, 68.03, 8.43, 222.73, 12.47,
      48.12, 61.23, 132.82, 150.25, 241.22, 249.2, 49.97, 33.37, 81.75, 65.73,
      78.62, 131.98, 41.32, 262.08, 44.45, 250.48, 234.38, 118.47, 124.55,
      126.12, 176.27, 248.53
    ],
    [
      135.1, 228.28, 123.1, 227.95, 291.68, 8.95, 70.02, 206.68, 193.83, 219.4,
      251.68, 373.03, 201.53, 26.45, 128.93, 92.75, 138.82, 54.15, 19.42, 43.92,
      19.42, 193.52, 159.15, 249.52, 115.22, 142.67, 233.43, 59.92, 241.67,
      244.43, 150.95, 89.78, 83.33, 250.68, 0, 158.35, 247.68, 378.8, 343.73,
      27.95, 289.93, 247.65, 256.3, 102.48, 110.62, 90.3, 149.72, 119.47, 45.58,
      368.17, 133.45, 147.82, 23.5, 244.68, 215.58, 29.77, 152, 147.77, 175.7,
      252, 270.08, 55.6, 273.78, 80.25, 18.93, 78.08, 66.55, 195.4, 201.93,
      49.35, 141.73, 247.68, 249.8, 153.98, 197.5, 141.88, 209, 265.17, 229.13,
      225.9, 142.53, 201.48, 220.03, 137.27, 28.38, 124.85, 232.53, 250.55,
      281.78, 250.18, 257.23, 51.52, 245.57, 199.33, 77.57, 243.43, 143.15,
      228.02, 237.37, 136.2, 82.23, 191.58, 161.85, 186.88, 246.2, 38.3, 246.98,
      208.98, 286.75, 143.05, 134.05, 56.78, 20.22, 238.23, 266.65, 200.38,
      196.33, 201.72, 148, 233.57, 40.77, 225.43, 13.62, 56.68, 343.98, 151.83,
      136.35, 382.72, 14.27
    ],
    [
      250.88, 352.63, 247.47, 352.3, 362.27, 157.02, 194.38, 331.03, 318.2,
      343.75, 376.03, 251.78, 325.88, 155.32, 253.28, 217.12, 263.17, 174.47,
      162.72, 175.95, 161.28, 317.87, 283.5, 373.88, 96.82, 267.02, 76, 183.22,
      366.02, 368.8, 275.3, 208.1, 199.1, 375.03, 155.85, 0, 372.03, 221.37,
      286.12, 157.12, 341.67, 372, 380.65, 218.25, 234.97, 206.08, 267.08,
      243.82, 113.75, 210.73, 115.05, 263.58, 140.53, 369.03, 339.95, 169.57,
      267.77, 264.35, 300.07, 376.35, 112.65, 171.37, 398.15, 204.62, 162.25,
      193.87, 182.32, 319.77, 326.3, 179.45, 266.08, 372.05, 374.17, 278.35,
      321.85, 266.23, 333.35, 389.53, 353.48, 350.27, 260.4, 325.83, 344.4,
      261.62, 168.18, 240.62, 356.88, 374.9, 363.57, 374.53, 381.58, 185.43,
      369.93, 323.68, 201.93, 367.78, 267.52, 352.37, 361.73, 260.55, 75.3,
      34.15, 286.2, 311.23, 370.55, 170.53, 371.35, 333.35, 365.63, 267.4,
      258.42, 189.02, 148.7, 362.6, 391, 324.75, 320.68, 326.08, 263.78, 357.93,
      139.47, 349.78, 155.43, 188.93, 283.13, 276.2, 260.7, 225.27, 159.88
    ],
    [
      143.18, 43.68, 149.05, 31.88, 75.47, 244.63, 196.63, 50.72, 68.33, 37.37,
      18.15, 156.8, 80.33, 254.35, 143.13, 160.67, 129.53, 216.52, 252.07,
      211.82, 237.07, 63.28, 115.98, 8.88, 330.45, 119.52, 342.42, 220.23,
      20.87, 12.67, 103.22, 186.8, 184.42, 30.55, 244.6, 373.6, 0, 189.18,
      127.52, 255.87, 73.7, 26.35, 29.75, 169.73, 140.33, 177.37, 139.08, 132.6,
      260.82, 200.78, 348.68, 142.78, 251.4, 14.22, 48.9, 228.83, 163.67,
      141.27, 78.67, 24.27, 290.22, 213.32, 50.08, 206.98, 252.62, 189.17,
      202.63, 71.48, 60.4, 217.25, 115.7, 18.7, 23.35, 122.62, 76.05, 120.48,
      49.07, 48.05, 35.32, 52.47, 138.82, 78.38, 44.22, 119.97, 227.47, 152.67,
      29.35, 30.4, 65.55, 26.73, 36.5, 229.6, 15.07, 73.35, 173.25, 20.48,
      132.12, 40.68, 17.18, 123.33, 297.47, 381.47, 97.23, 70.98, 25.18, 221.67,
      19.07, 51.3, 70.52, 132, 149.02, 240.15, 248.13, 42.22, 49.52, 72.57,
      68.92, 78.63, 131.18, 19.12, 261.02, 46.5, 249.42, 233.32, 127.75, 123.33,
      125.3, 185.53, 247.47
    ],
    [
      316.9, 220.03, 327.22, 208.23, 143.15, 369.97, 368.65, 222.73, 243.85,
      209.4, 191.12, 32.67, 252.37, 368.27, 315.17, 332.7, 301.55, 388.53,
      375.67, 383.85, 374.22, 235.3, 288, 192.2, 309.75, 291.53, 154.72, 392.25,
      211.72, 187.97, 275.23, 358.83, 356.67, 192.72, 368.8, 212.95, 198.17, 0,
      67, 370.05, 122.55, 187.08, 204.77, 340.1, 312.37, 349.62, 311.1, 304.62,
      326.7, 13.08, 327.98, 314.8, 353.48, 211.13, 224.42, 382.5, 283.2, 313.28,
      250.7, 187.38, 102.5, 388.45, 229.62, 379, 375.2, 361.43, 376.18, 247,
      235.93, 389.28, 287.73, 203.77, 200.87, 294.63, 248.08, 292.5, 224.58,
      196.32, 211.67, 227.32, 310.83, 250.42, 216.23, 291.98, 381.13, 320.22,
      207.53, 181.7, 144.45, 206, 187.32, 401.62, 185, 245.37, 345.28, 196.15,
      304.13, 217.03, 203.82, 295.37, 288.25, 193.77, 269.27, 243, 187.27,
      393.7, 197.75, 226.82, 146.52, 304.03, 321.05, 412.17, 361.65, 228.68,
      197.8, 244.58, 244.43, 250.65, 303.2, 208.73, 352.42, 221.63, 368.38,
      405.33, 64.02, 295.35, 297.33, 6.7, 372.83
    ],
    [
      252.05, 156.88, 257.92, 145.08, 80, 353.5, 305.5, 159.58, 180.72, 146.25,
      127.97, 32.32, 189.22, 363.23, 252.02, 269.55, 238.4, 325.38, 360.93,
      320.7, 345.95, 172.15, 224.87, 129.05, 372.98, 228.38, 217.95, 329.1,
      148.57, 124.82, 212.08, 295.68, 293.28, 129.57, 353.47, 276.17, 135.02,
      64.7, 0, 364.73, 59.4, 123.93, 141.62, 278.62, 249.22, 286.23, 247.95,
      241.47, 369.7, 76.3, 391.22, 251.65, 360.28, 147.98, 161.27, 337.72,
      277.85, 250.13, 187.55, 124.23, 165.73, 322.18, 166.47, 315.87, 361.48,
      298.05, 311.52, 183.85, 172.78, 326.13, 224.58, 140.62, 137.72, 231.48,
      184.93, 229.35, 161.43, 133.17, 148.52, 164.17, 247.68, 187.27, 153.08,
      228.83, 336.33, 261.55, 144.38, 118.55, 81.3, 142.87, 124.17, 338.47,
      121.85, 182.22, 282.13, 133, 241, 153.9, 140.67, 232.22, 351.47, 257,
      206.12, 179.87, 124.12, 330.55, 134.6, 163.68, 83.37, 240.88, 257.9,
      349.02, 357, 165.53, 134.65, 181.43, 181.28, 187.5, 240.05, 145.58, 369.9,
      158.48, 358.3, 342.2, 3.28, 232.2, 234.18, 61.07, 356.35
    ],
    [
      149.33, 239.42, 134.25, 239.08, 302.83, 33.63, 81.17, 217.82, 204.98,
      230.53, 262.82, 384.17, 212.67, 5.45, 140.07, 103.88, 149.95, 65.28,
      34.05, 55.05, 32.62, 204.65, 170.28, 260.65, 113.15, 153.8, 231.37, 71.07,
      252.8, 255.58, 162.08, 100.92, 97.55, 261.82, 27.2, 156.28, 258.82,
      376.73, 354.88, 0, 301.07, 258.78, 267.43, 116.7, 121.75, 104.52, 160.85,
      130.6, 43.52, 366.1, 131.38, 162.03, 18.13, 255.82, 226.73, 40.9, 166.22,
      158.92, 186.85, 263.13, 268.02, 69.82, 284.93, 91.4, 23.48, 92.3, 80.77,
      206.53, 213.08, 60.5, 152.87, 258.82, 260.95, 165.12, 208.63, 153.02,
      220.13, 276.3, 240.27, 237.05, 153.67, 212.62, 231.18, 148.4, 39.52,
      139.07, 243.67, 261.68, 292.92, 261.32, 268.37, 62.65, 256.7, 210.47,
      88.72, 254.57, 154.3, 239.15, 248.52, 147.33, 80.17, 189.52, 172.98,
      198.02, 257.33, 49.43, 258.12, 220.13, 297.88, 154.18, 145.18, 67.92,
      15.7, 249.38, 277.78, 211.53, 207.47, 212.85, 162.22, 244.7, 50.7, 236.57,
      26.78, 67.83, 355.12, 162.98, 147.48, 380.63, 22.07
    ],
    [
      193.87, 98.68, 199.73, 86.9, 20.5, 295.32, 247.32, 101.4, 122.52, 88.05,
      69.77, 84.77, 131.02, 305.03, 193.82, 211.35, 180.22, 267.2, 302.75,
      262.5, 287.75, 113.97, 166.67, 70.87, 381.13, 170.2, 270.4, 270.92, 90.38,
      66.63, 153.9, 237.48, 235.1, 71.38, 295.28, 328.62, 76.83, 117.15, 55.48,
      306.55, 0, 65.75, 83.43, 220.42, 191.03, 228.05, 189.77, 183.28, 311.5,
      128.75, 399.37, 193.47, 302.08, 89.78, 103.08, 279.53, 214.35, 191.95,
      129.35, 66.05, 218.18, 264, 108.28, 257.67, 303.3, 239.87, 253.32, 125.67,
      114.58, 267.95, 166.38, 82.43, 79.53, 173.3, 126.73, 171.17, 103.25,
      74.98, 90.33, 105.97, 189.5, 129.08, 94.9, 170.65, 278.15, 203.35, 86.2,
      60.35, 23.12, 84.67, 65.98, 280.28, 63.67, 124.03, 223.95, 74.82, 182.8,
      95.7, 82.48, 174.02, 348.15, 309.45, 147.92, 121.67, 65.93, 272.35, 76.42,
      105.48, 25.17, 182.68, 199.7, 290.83, 298.82, 107.33, 76.45, 123.25,
      123.1, 129.32, 181.87, 87.4, 311.7, 100.3, 300.1, 284, 55.73, 174.02, 176,
      113.52, 298.15
    ],
    [
      148.8, 48.97, 154.67, 37.17, 66.28, 250.25, 202.25, 56.33, 72.48, 42.98,
      8.35, 147.62, 85.95, 259.97, 148.75, 166.28, 135.15, 222.13, 257.68,
      217.43, 242.68, 68.9, 121.6, 21.42, 336.07, 125.13, 333.25, 225.85, 35.82,
      17.18, 108.83, 192.42, 190.03, 18.18, 250.22, 379.22, 25.98, 180, 118.33,
      261.48, 64.53, 0, 30.23, 175.35, 145.97, 182.98, 144.7, 138.22, 266.43,
      191.6, 354.3, 148.4, 257.02, 31.88, 53.05, 234.47, 169.28, 146.88, 84.28,
      8.55, 281.03, 218.93, 64.47, 212.6, 258.23, 194.8, 208.25, 75.63, 64.55,
      222.88, 121.32, 32.85, 28.43, 128.23, 78.98, 126.1, 53.22, 36.42, 40.6,
      55.93, 144.43, 84.02, 49.83, 125.58, 233.08, 158.28, 41.13, 18.03, 56.38,
      39.88, 24.87, 235.22, 14.22, 78.97, 178.88, 25.77, 137.73, 45.98, 36.53,
      128.95, 303.08, 372.3, 102.85, 76.6, 12.83, 227.28, 25.93, 55.45, 61.35,
      137.62, 154.63, 245.77, 253.75, 56.62, 37.9, 78.18, 73.07, 84.25, 136.8,
      42.33, 266.63, 51.78, 255.03, 238.93, 118.58, 128.95, 130.93, 176.37,
      253.08
    ],
    [
      148.57, 44.07, 154.28, 32.27, 79.77, 249.85, 201.85, 62.32, 69.32, 55.48,
      27.23, 161.1, 81.6, 259.58, 148.3, 165.9, 134.5, 221.73, 257.28, 217.05,
      242.3, 74.88, 121.37, 25.4, 335.67, 124.9, 346.73, 225.45, 35.75, 26.15,
      108.6, 192.03, 189.65, 15.25, 249.82, 378.82, 30.5, 193.48, 131.82, 261.1,
      78, 30.52, 0, 175.13, 145.57, 182.58, 144.05, 137.83, 266.05, 205.08,
      353.9, 147.75, 256.63, 33.8, 49.87, 234.07, 169.05, 146.23, 84.05, 29.03,
      294.52, 218.55, 40.42, 212.22, 257.83, 194.4, 207.87, 72.45, 61.38,
      222.48, 121.08, 27.8, 9.27, 127.58, 75.8, 125.45, 50.05, 45.48, 35.7,
      52.77, 143.78, 82.53, 52.03, 124.93, 232.68, 158.05, 49.25, 29.15, 69.85,
      16.82, 33.93, 234.82, 25.98, 74.8, 178.48, 37.75, 137.08, 41.08, 38.4,
      128.32, 302.68, 385.77, 102.2, 72.18, 21.4, 226.9, 15.93, 52.28, 74.82,
      136.98, 154.4, 245.37, 253.35, 54.13, 46.95, 84.18, 69.88, 82.77, 136.15,
      46.25, 266.25, 46.88, 254.65, 238.55, 132.05, 128.72, 130.28, 189.85,
      252.7
    ],
    [
      41.28, 150.22, 41.85, 149.88, 213.2, 97.43, 56.95, 128.2, 115.77, 140.9,
      173.18, 294.53, 123.47, 111.53, 54.75, 23.1, 56.03, 70.15, 108.28, 71.63,
      96.9, 115.03, 80.67, 171.03, 176.63, 64.18, 294.85, 78.9, 163.18, 165.95,
      72.47, 41.63, 26.12, 172.62, 101.42, 219.77, 169.18, 326.92, 265.25,
      113.03, 211.43, 169.15, 178.22, 0, 40.97, 19.07, 57.5, 50.03, 107, 338.52,
      194.87, 54, 108.58, 166.2, 137.52, 88.67, 58.18, 54.77, 97.22, 173.93,
      331.5, 57.9, 195.72, 67.17, 110.63, 30.88, 45.63, 117.33, 123.87, 75.13,
      63.25, 169.62, 171.73, 72.32, 119.43, 61.37, 130.93, 186.68, 151.05,
      147.83, 50.82, 123.42, 141.55, 61.17, 87.28, 31.03, 154.03, 172.05, 203.3,
      172.12, 177.68, 89.42, 167.08, 121.27, 33.58, 164.95, 64.5, 149.95,
      158.88, 58.37, 143.65, 253, 85.6, 108.82, 168.12, 79.23, 168.92, 130.92,
      208.25, 64.38, 64.4, 97.7, 105.3, 160.17, 188.15, 121.9, 118.27, 123.65,
      54.18, 155.08, 107.2, 146.95, 109.23, 91.47, 265.5, 73.37, 51.93, 323.28,
      105.45
    ],
    [
      31.87, 121.28, 12.1, 120.95, 184.68, 108.65, 60.65, 99.68, 86.83, 112.4,
      144.67, 266.02, 94.53, 118.37, 21.93, 24.68, 31.82, 80.53, 116.08, 75.83,
      101.08, 86.52, 52.15, 142.52, 194.47, 35.65, 312.68, 84.25, 134.67,
      137.43, 43.95, 50.82, 48.43, 143.68, 108.6, 237.6, 140.67, 298.4, 236.73,
      119.88, 182.93, 140.65, 149.28, 42.52, 0, 41.38, 42.7, 12.47, 124.83, 310,
      212.7, 44.72, 115.42, 137.68, 108.58, 92.85, 52.2, 40.77, 68.7, 145,
      349.33, 77.33, 166.78, 71, 116.63, 53.18, 66.65, 88.4, 94.93, 81.27,
      34.73, 140.68, 142.8, 46.98, 90.5, 34.87, 102, 158.17, 122.12, 118.9,
      35.53, 94.48, 113.03, 30.27, 91.47, 27.37, 125.52, 143.55, 174.78, 143.18,
      150.23, 93.62, 138.57, 92.33, 37.27, 136.43, 36.15, 121.02, 130.37, 29.2,
      161.48, 270.83, 54.85, 79.88, 139.18, 85.68, 139.98, 101.98, 179.75,
      36.05, 27.05, 104.17, 112.13, 131.23, 159.65, 93.38, 89.33, 94.72, 44.92,
      126.57, 125.03, 118.43, 113.43, 97.33, 236.98, 44.83, 29.35, 294.77,
      111.48
    ],
    [
      53.33, 159.38, 53.9, 159.07, 222.8, 84.88, 45.17, 137.8, 124.95, 150.5,
      182.78, 304.13, 132.65, 98.98, 60.05, 23.87, 68.08, 57.6, 95.73, 59.08,
      84.35, 124.63, 90.25, 180.63, 164.08, 73.77, 282.32, 66.35, 172.78,
      175.55, 82.07, 29.08, 13.57, 181.8, 88.87, 207.23, 178.78, 336.52, 274.85,
      100.5, 221.03, 178.75, 187.4, 20.72, 41.72, 0, 69.53, 50.57, 94.45,
      348.12, 182.32, 66.05, 96.03, 175.8, 146.7, 76.12, 70.23, 66.82, 106.82,
      183.1, 318.95, 45.35, 204.9, 54.62, 98.08, 18.33, 33.1, 126.52, 133.05,
      62.58, 72.85, 178.8, 180.92, 84.37, 128.6, 73.42, 140.1, 196.28, 160.23,
      157.02, 62.87, 132.58, 151.15, 68.38, 74.73, 43.08, 163.63, 181.65, 212.9,
      181.3, 188.33, 76.87, 176.68, 130.45, 27.15, 174.55, 74.27, 159.12,
      168.48, 67.32, 131.1, 240.45, 92.97, 117.98, 177.3, 66.68, 178.1, 140.1,
      217.85, 74.15, 65.17, 85.15, 92.75, 169.35, 197.75, 131.5, 127.45, 132.83,
      66.23, 164.68, 94.65, 156.55, 96.7, 78.92, 275.1, 82.95, 63.98, 332.88,
      92.92
    ],
    [
      29.47, 118.4, 43.38, 118.07, 181.82, 144.13, 98.3, 96.8, 83.95, 109.52,
      141.8, 263.15, 91.65, 156.03, 38.3, 62.35, 21.9, 116.87, 153.73, 113.48,
      138.75, 83.63, 55.12, 139.63, 223.33, 48.42, 341.57, 121.9, 131.78,
      134.55, 47.58, 88.48, 72.83, 140.8, 146.27, 266.48, 137.8, 295.52, 233.85,
      157.53, 180.05, 137.77, 146.42, 56.27, 42.02, 65.78, 0, 34.27, 153.7,
      307.13, 241.57, 4.53, 153.07, 134.8, 105.72, 130.52, 50.18, 5.3, 72.35,
      142.12, 378.22, 104.62, 163.9, 108.65, 154.28, 77.58, 92.35, 85.52, 92.05,
      118.93, 44.68, 137.8, 139.92, 38.75, 87.62, 30.87, 99.12, 155.28, 119.25,
      116.03, 12.05, 91.6, 110.15, 27.38, 129.13, 39.18, 122.65, 140.67, 171.9,
      140.3, 147.35, 131.27, 135.68, 89.45, 74.93, 133.55, 10.75, 118.13,
      127.48, 24.78, 190.35, 299.72, 51.97, 77, 136.32, 123.35, 137.1, 99.1,
      176.87, 10.63, 60.38, 141.82, 149.8, 128.37, 156.77, 90.5, 86.45, 91.83,
      20.62, 123.68, 153.92, 115.55, 151.1, 134.98, 234.1, 51.4, 20.9, 291.88,
      149.13
    ],
    [
      23.2, 112.62, 19.3, 112.28, 176.03, 114.88, 66.88, 91.02, 78.18, 103.73,
      136.02, 257.37, 85.87, 124.62, 12.58, 30.93, 23.15, 86.77, 122.32, 82.08,
      107.33, 77.85, 43.48, 133.85, 200.7, 27, 318.93, 90.48, 126, 128.78,
      35.28, 57.07, 54.67, 135.02, 114.85, 243.85, 132.02, 289.75, 228.07,
      126.12, 174.27, 131.98, 140.63, 48.77, 10.6, 47.62, 34.05, 0, 131.07,
      301.35, 218.93, 36.07, 121.65, 129.02, 99.93, 99.1, 43.68, 32.12, 60.05,
      136.33, 355.58, 83.57, 158.12, 77.23, 122.87, 59.43, 72.9, 79.73, 86.27,
      87.52, 26.07, 132.02, 134.13, 38.32, 81.83, 26.22, 93.33, 149.5, 113.47,
      110.25, 26.87, 85.82, 104.38, 21.6, 97.72, 30.57, 116.87, 134.88, 166.12,
      134.52, 141.57, 99.85, 129.9, 83.67, 43.52, 127.77, 27.5, 112.35, 121.72,
      20.53, 167.72, 277.08, 46.18, 71.22, 130.53, 91.93, 131.32, 93.33, 171.08,
      27.38, 28.97, 110.4, 118.38, 122.58, 150.98, 84.72, 80.67, 86.05, 36.25,
      117.9, 131.28, 109.77, 119.68, 103.57, 228.32, 36.18, 20.68, 286.1, 117.72
    ],
    [
      140.37, 242.12, 136.95, 241.8, 305.53, 46.5, 83.87, 220.53, 207.68,
      233.23, 265.52, 386.87, 215.38, 44.8, 142.78, 106.6, 152.67, 63.97, 52.2,
      65.45, 50.77, 207.37, 172.98, 263.37, 72.05, 156.5, 190.28, 72.7, 255.52,
      258.28, 164.8, 97.58, 88.58, 264.53, 45.35, 115.2, 261.52, 335.63, 357.58,
      46.6, 303.78, 261.5, 270.13, 107.75, 124.45, 95.57, 156.57, 133.32, 0,
      325.02, 90.28, 153.08, 30.02, 258.53, 229.43, 59.05, 157.27, 153.85,
      189.55, 265.83, 226.92, 60.85, 287.63, 94.1, 51.73, 83.35, 71.82, 209.25,
      215.78, 68.93, 155.58, 261.53, 263.65, 167.83, 211.35, 155.72, 222.85,
      279.02, 242.97, 239.75, 149.9, 215.33, 233.88, 151.12, 57.67, 130.12,
      246.37, 264.38, 295.63, 264.03, 271.07, 74.93, 259.42, 213.18, 91.42,
      257.28, 157, 241.85, 251.22, 150.05, 39.07, 148.43, 175.7, 200.73, 260.03,
      60.03, 260.83, 222.83, 300.58, 156.88, 147.9, 78.5, 38.2, 252.08, 280.48,
      214.23, 210.18, 215.57, 153.27, 247.42, 28.95, 239.28, 44.92, 78.42,
      357.83, 165.68, 150.2, 339.55, 49.38
    ],
    [
      328.95, 232.08, 339.27, 220.28, 155.2, 360.72, 380.7, 234.78, 255.9,
      221.43, 203.17, 44.72, 264.4, 359.02, 327.22, 344.73, 313.6, 378.17,
      366.42, 379.65, 364.98, 247.35, 300.05, 204.25, 300.52, 303.58, 145.47,
      386.92, 223.77, 200.02, 287.28, 370.87, 368.72, 204.77, 359.55, 203.7,
      210.22, 14.3, 79.05, 360.82, 134.58, 199.13, 216.82, 352.15, 324.42,
      361.67, 323.15, 316.67, 317.45, 0, 318.75, 326.85, 344.23, 223.17, 236.47,
      373.27, 295.25, 325.33, 262.73, 199.43, 93.27, 375.07, 241.67, 391.05,
      365.95, 373.48, 388.23, 259.05, 247.97, 383.15, 299.77, 215.82, 212.92,
      306.68, 260.12, 304.55, 236.63, 208.37, 223.72, 239.37, 322.88, 262.47,
      228.28, 304.03, 371.88, 332.27, 219.58, 193.75, 156.5, 218.05, 199.37,
      389.13, 197.05, 257.42, 357.33, 208.2, 316.18, 229.08, 215.87, 307.42,
      279, 184.52, 281.3, 255.05, 199.32, 374.23, 209.8, 238.87, 158.57, 316.08,
      333.08, 392.72, 352.4, 240.72, 209.85, 256.63, 256.48, 262.7, 315.25,
      220.78, 343.17, 233.68, 359.13, 392.63, 76.07, 307.4, 309.38, 18.2, 363.58
    ],
    [
      234.03, 335.8, 230.62, 335.47, 399.2, 140.18, 177.53, 314.2, 301.35,
      326.92, 359.18, 372.9, 309.05, 138.47, 236.45, 200.27, 246.33, 157.63,
      145.87, 159.12, 144.43, 301.03, 266.67, 357.03, 18.48, 250.17, 197.13,
      166.38, 349.18, 351.95, 258.47, 191.27, 182.27, 358.2, 139.02, 122.05,
      355.18, 342.48, 407.23, 140.27, 397.45, 355.17, 363.8, 201.42, 218.13,
      189.23, 250.25, 226.98, 96.92, 331.87, 0, 246.75, 123.7, 352.2, 323.1,
      152.72, 250.93, 247.52, 283.22, 359.52, 233.77, 154.52, 381.3, 187.77,
      145.4, 177.02, 165.48, 302.92, 309.45, 162.62, 249.25, 355.2, 357.32,
      261.5, 305.02, 249.38, 316.52, 372.68, 336.63, 333.42, 243.57, 309,
      327.55, 244.78, 151.33, 223.78, 340.03, 358.07, 389.3, 357.7, 364.75,
      168.6, 353.08, 306.85, 185.08, 350.95, 250.67, 335.53, 344.88, 243.72,
      58.45, 155.28, 269.37, 294.4, 353.7, 153.7, 354.5, 316.5, 394.27, 250.57,
      241.57, 172.17, 131.87, 345.75, 374.17, 307.9, 303.85, 309.23, 246.93,
      341.08, 122.62, 332.95, 138.6, 172.08, 404.27, 259.35, 243.87, 346.4,
      143.05
    ],
    [
      26.2, 122.35, 39.7, 122.02, 185.77, 140.47, 98.47, 100.75, 87.92, 113.47,
      145.75, 267.1, 95.6, 156.18, 39.15, 62.5, 22.33, 113.2, 151.32, 113.65,
      138.9, 87.58, 58.45, 143.6, 219.67, 48.58, 337.9, 121.93, 135.73, 138.52,
      50.93, 84.67, 69.17, 144.75, 144.47, 262.82, 141.75, 299.48, 237.82,
      157.7, 184, 141.72, 150.37, 52.58, 42.17, 62.12, 4.52, 34.43, 150.03,
      311.08, 237.9, 0, 153.23, 138.75, 109.67, 130.67, 46.52, 7.38, 75.68,
      146.07, 374.53, 100.93, 167.87, 108.82, 153.67, 73.92, 88.68, 89.48,
      96.02, 118.17, 48.02, 141.77, 143.88, 35.83, 91.57, 27.97, 103.07, 159.25,
      123.2, 119.98, 14.57, 95.55, 114.12, 32.77, 129.3, 35.52, 126.6, 144.62,
      175.85, 144.25, 151.3, 131.43, 139.65, 93.4, 75.08, 137.5, 13.75, 122.08,
      131.45, 27.78, 186.68, 296.05, 55.92, 80.95, 140.27, 122.27, 141.07,
      103.07, 180.82, 13.63, 60.55, 140.73, 149.97, 132.32, 160.72, 94.47, 90.4,
      95.8, 17.7, 127.65, 150.23, 119.5, 151.25, 134.5, 238.05, 54.75, 23.88,
      295.85, 149.3
    ],
    [
      141.82, 231.9, 126.73, 231.58, 295.32, 26.13, 73.65, 210.32, 197.47,
      223.02, 255.3, 376.65, 205.17, 15.52, 132.57, 96.38, 142.43, 57.78, 26.55,
      47.55, 25.12, 197.15, 162.77, 253.15, 98.3, 146.28, 216.53, 63.55, 245.3,
      248.07, 154.58, 93.4, 90.03, 254.32, 19.68, 141.45, 251.3, 361.88, 347.37,
      17.03, 293.55, 251.27, 259.92, 109.18, 114.23, 97.02, 153.33, 123.08,
      28.67, 351.25, 116.53, 154.52, 0, 248.32, 219.22, 33.4, 158.72, 151.4,
      179.33, 255.62, 253.17, 62.3, 277.42, 83.88, 26.08, 84.8, 73.27, 199.03,
      205.57, 52.98, 145.37, 251.32, 253.43, 157.62, 201.12, 145.5, 212.62,
      268.8, 232.75, 229.53, 146.15, 205.1, 223.67, 140.9, 32.02, 131.57,
      236.15, 254.17, 285.42, 253.82, 260.85, 55.13, 249.2, 202.97, 81.2,
      247.07, 146.78, 231.63, 241, 139.83, 65.32, 174.67, 165.48, 190.5, 249.82,
      41.93, 250.62, 212.62, 290.37, 146.67, 137.68, 60.4, 12.53, 241.87,
      270.27, 204.02, 199.97, 205.35, 154.72, 237.2, 40.18, 229.07, 19.27,
      60.32, 347.62, 155.47, 139.97, 365.8, 23.72
    ],
    [
      136.95, 37.07, 142.82, 25.28, 82.58, 238.4, 190.4, 44.48, 61.73, 31.13,
      26.67, 163.92, 74.1, 248.12, 136.9, 154.43, 123.3, 210.28, 245.83, 205.58,
      230.83, 57.03, 109.75, 19.4, 324.22, 113.27, 349.55, 214, 10.58, 19.95,
      96.98, 180.57, 178.18, 29.9, 238.35, 367.35, 11.58, 196.3, 134.63, 249.63,
      80.83, 29.92, 29.6, 163.5, 134.1, 171.13, 132.85, 126.37, 254.58, 207.9,
      342.45, 136.55, 245.17, 0, 42.28, 222.6, 157.43, 135.03, 72.43, 27.83,
      297.33, 207.08, 47.2, 200.75, 246.38, 182.93, 196.4, 64.87, 53.8, 211.02,
      109.47, 16.5, 23.22, 116.37, 69.82, 114.25, 42.47, 48.32, 28.7, 45.87,
      132.58, 72.15, 37.98, 113.72, 221.22, 146.43, 23.05, 31.98, 72.68, 26.6,
      36.77, 223.37, 22.35, 67.12, 167.02, 25.93, 125.88, 34.08, 16.27, 117.1,
      291.23, 388.6, 91, 64.75, 26.75, 215.43, 20.13, 44.7, 77.65, 125.77,
      142.78, 233.92, 241.9, 39.35, 49.78, 66.33, 62.3, 72.4, 124.95, 17.32,
      254.78, 39.88, 243.18, 227.08, 134.88, 117.1, 119.07, 192.67, 241.23
    ],
    [
      111.32, 24.93, 117.02, 24.6, 99.72, 212.6, 164.6, 25.7, 32.05, 31.4,
      50.42, 181.07, 44.33, 222.32, 111.03, 128.63, 97.23, 184.48, 220.03,
      179.78, 205.03, 38.27, 84.12, 51.22, 298.42, 87.63, 366.68, 188.2, 44.4,
      49.33, 71.33, 154.77, 152.38, 47.33, 212.55, 341.55, 48.92, 213.43,
      151.77, 223.83, 97.97, 53.4, 52.95, 137.87, 108.3, 145.33, 106.78, 100.57,
      228.78, 225.05, 316.65, 110.48, 219.37, 48.83, 0, 196.8, 131.78, 108.97,
      46.8, 48.65, 314.47, 181.28, 70.45, 174.95, 220.58, 157.13, 170.6, 35.2,
      24.12, 185.22, 83.83, 44.35, 46.47, 90.32, 38.55, 88.18, 12.65, 65.43,
      25.78, 15.32, 106.52, 45.27, 27.95, 87.67, 195.42, 120.8, 44.52, 49.42,
      89.82, 46.83, 53.88, 197.57, 49.18, 37.53, 141.22, 55.43, 99.83, 24.67,
      49.37, 91.05, 265.43, 374.78, 64.95, 34.93, 42.85, 189.63, 43.65, 14.88,
      94.78, 99.72, 117.15, 208.12, 216.1, 34.9, 66.92, 49.63, 32.63, 45.52,
      98.88, 45.57, 228.98, 22.8, 217.38, 201.28, 152.02, 91.45, 93.02, 209.8,
      215.43
    ],
    [
      120.87, 210.95, 105.78, 210.62, 274.37, 27.23, 52.7, 189.35, 176.52,
      202.07, 234.35, 355.7, 184.2, 36.97, 111.6, 75.42, 121.48, 36.82, 34.67,
      26.58, 19.68, 176.18, 141.82, 232.18, 125.73, 125.33, 243.95, 42.6,
      224.33, 227.12, 133.62, 72.45, 69.08, 233.35, 27.2, 168.87, 230.35,
      388.08, 326.42, 38.47, 272.6, 230.32, 238.97, 88.23, 93.28, 76.05, 132.38,
      102.13, 56.1, 378.68, 143.97, 133.57, 34, 227.35, 198.27, 0, 137.75,
      130.45, 158.38, 234.67, 280.6, 41.35, 256.47, 62.93, 35.22, 63.83, 52.3,
      178.07, 184.62, 32.03, 124.4, 230.35, 232.48, 136.65, 180.17, 124.55,
      191.67, 247.83, 211.8, 208.58, 125.2, 184.15, 202.72, 119.93, 8.82, 110.6,
      215.2, 233.22, 264.45, 232.85, 239.9, 34.18, 228.23, 182, 60.25, 226.1,
      125.83, 210.68, 220.05, 118.87, 92.75, 202.1, 144.52, 169.55, 228.87,
      20.97, 229.65, 191.67, 269.42, 125.72, 116.72, 39.45, 30.73, 220.92,
      249.32, 183.07, 179, 184.38, 133.75, 216.23, 59.53, 208.1, 32.03, 39.37,
      326.65, 134.52, 119.02, 384.43, 30.07
    ],
    [
      35.58, 144.5, 45.9, 144.17, 207.5, 146.67, 106.18, 122.48, 110.07, 135.2,
      167.48, 263.7, 117.75, 160.77, 49.05, 72.33, 50.32, 119.38, 157.52,
      120.87, 146.13, 109.32, 74.95, 165.32, 225.87, 58.47, 344.08, 128.13,
      157.47, 160.25, 66.77, 90.87, 75.35, 166.9, 150.65, 269, 163.48, 296.08,
      259.53, 162.27, 205.73, 163.45, 172.52, 58.78, 52.07, 68.3, 51.78, 44.32,
      156.23, 307.68, 244.1, 48.28, 157.82, 160.48, 131.82, 137.9, 0, 49.05,
      91.52, 168.22, 380.73, 107.13, 190.02, 116.4, 159.87, 80.12, 94.87,
      111.63, 118.17, 124.37, 57.55, 163.92, 166.03, 66.6, 113.72, 55.67,
      125.22, 180.97, 145.35, 142.13, 45.1, 117.7, 135.85, 55.45, 136.52, 38.9,
      148.33, 166.35, 197.58, 166.4, 171.97, 138.65, 161.37, 115.55, 82.82,
      159.23, 58.78, 144.23, 153.18, 52.65, 192.88, 302.23, 79.9, 103.1, 162.42,
      128.47, 163.2, 125.22, 202.55, 58.67, 70.53, 146.93, 154.53, 154.47,
      182.45, 116.18, 112.55, 117.93, 48.47, 149.37, 156.43, 141.23, 158.47,
      140.7, 259.78, 67.65, 46.23, 292.45, 154.68
    ],
    [
      27.22, 120.6, 42.3, 120.27, 184.02, 144.05, 96.05, 99, 86.17, 111.72, 144,
      265.35, 93.85, 153.77, 36.73, 60.08, 20.08, 115.78, 151.48, 111.23,
      136.48, 85.83, 57.32, 141.85, 222.25, 46.17, 340.48, 119.65, 133.98,
      136.77, 49.8, 86.22, 71.75, 143, 144, 265.4, 140, 297.73, 236.07, 155.28,
      182.25, 139.97, 148.62, 55.18, 39.75, 64.7, 4.03, 32.02, 152.62, 309.33,
      240.48, 4.8, 150.82, 137, 107.92, 128.25, 49.1, 0, 74.55, 144.32, 377.13,
      103.53, 166.12, 106.4, 152.03, 76.5, 91.27, 87.73, 94.27, 116.67, 45.23,
      140.02, 142.13, 40.28, 89.82, 32.42, 101.32, 157.5, 121.45, 118.23, 9.47,
      93.8, 112.37, 29.58, 126.87, 38.1, 124.85, 142.87, 174.1, 142.5, 149.55,
      129.02, 137.9, 91.65, 72.67, 135.75, 10.67, 120.33, 129.7, 26.33, 189.27,
      298.63, 54.17, 79.2, 138.52, 121.08, 139.32, 101.32, 179.07, 10.55, 58.12,
      139.57, 147.55, 130.57, 158.97, 92.72, 88.65, 94.05, 22.15, 125.9, 152.83,
      117.75, 148.83, 132.73, 236.3, 55.35, 22.05, 294.1, 146.88
    ],
    [
      71.48, 59.88, 77.35, 59.55, 122.87, 172.93, 124.93, 37.87, 25.43, 50.58,
      82.85, 204.2, 33.13, 182.67, 71.45, 88.98, 67.28, 144.82, 180.37, 140.13,
      165.38, 24.7, 41.72, 80.7, 258.75, 47.82, 376.98, 148.53, 72.85, 75.62,
      31.52, 115.12, 112.72, 82.28, 172.9, 301.9, 78.85, 236.58, 174.92, 184.17,
      121.12, 78.83, 87.9, 98.05, 68.65, 105.67, 76.83, 60.9, 189.12, 248.18,
      276.98, 77.82, 179.7, 75.87, 47.2, 157.15, 91.97, 80.4, 0, 83.6, 337.62,
      141.62, 105.38, 135.28, 180.92, 117.48, 130.95, 27, 33.53, 145.57, 44.02,
      79.28, 81.4, 57.22, 29.1, 58.23, 40.6, 96.35, 60.73, 57.52, 75.15, 33.08,
      51.22, 57.72, 155.77, 80.97, 63.7, 81.73, 112.97, 81.78, 87.35, 157.9,
      76.75, 30.93, 101.57, 74.62, 69.87, 59.62, 68.55, 61.08, 225.77, 335.13,
      43.75, 18.48, 77.8, 149.98, 78.58, 40.58, 117.93, 69.75, 79.23, 168.45,
      176.43, 69.85, 97.83, 31.57, 27.93, 30.15, 66.22, 64.75, 189.33, 56.62,
      177.73, 161.62, 175.17, 51.63, 63.07, 232.95, 175.77
    ],
    [
      146.93, 44.15, 152.63, 32.35, 63.25, 248.22, 200.22, 56.93, 67.67, 43.6,
      10.53, 144.58, 79.97, 257.93, 146.65, 164.25, 132.85, 220.1, 255.65,
      215.4, 240.65, 69.5, 119.73, 22.02, 334.03, 123.25, 330.22, 223.82, 33.93,
      17.78, 106.95, 190.38, 188, 13.37, 248.18, 377.18, 24.1, 176.97, 115.3,
      259.45, 61.5, 8.18, 25.42, 173.48, 143.92, 180.95, 142.4, 136.18, 264.4,
      188.57, 352.27, 146.1, 254.98, 30, 48.23, 232.42, 167.4, 144.58, 82.42, 0,
      278, 216.9, 56.07, 210.57, 256.2, 192.75, 206.22, 70.82, 59.73, 220.83,
      119.45, 30.98, 23.62, 125.93, 74.17, 123.8, 48.4, 28.97, 35.78, 51.12,
      142.13, 80.9, 50.43, 123.28, 231.05, 156.42, 41.73, 11.48, 53.35, 32.45,
      17.42, 233.18, 14.82, 73.17, 176.83, 26.7, 135.45, 41.17, 34.65, 126.67,
      301.05, 369.27, 100.57, 70.55, 8.02, 225.25, 21.12, 50.63, 58.3, 135.33,
      152.77, 243.73, 251.72, 54.73, 30.45, 78.78, 68.25, 81.13, 134.5, 39.8,
      264.6, 46.97, 253, 236.9, 115.55, 127.07, 128.63, 173.33, 251.05
    ],
    [
      361.32, 326.5, 357.9, 314.7, 249.62, 267.45, 304.82, 329.2, 350.32,
      315.87, 297.58, 139.13, 358.83, 265.75, 363.73, 327.55, 373.62, 284.92,
      273.15, 286.4, 271.72, 341.77, 394.47, 298.67, 207.25, 377.45, 70.83,
      293.65, 318.18, 294.43, 381.7, 318.53, 309.53, 299.18, 266.3, 110.43,
      304.63, 108.72, 173.47, 267.55, 229.02, 293.55, 311.23, 328.7, 345.4,
      316.52, 377.52, 354.27, 224.18, 98.08, 225.48, 374.03, 250.97, 317.6,
      330.88, 280, 378.22, 374.8, 357.17, 293.85, 0, 281.8, 336.08, 315.05,
      272.68, 304.3, 292.77, 353.47, 342.4, 289.88, 376.53, 310.23, 307.33,
      388.78, 354.55, 376.67, 331.05, 302.78, 318.13, 333.78, 370.85, 356.88,
      322.7, 372.07, 278.62, 351.07, 314, 288.17, 250.92, 312.47, 293.78,
      295.88, 291.47, 351.83, 312.37, 302.62, 377.95, 323.5, 310.28, 371,
      185.73, 91.27, 375.73, 349.47, 293.73, 280.98, 304.22, 333.28, 252.98,
      377.83, 368.85, 299.45, 259.15, 335.15, 304.27, 351.05, 350.9, 357.12,
      374.22, 315.2, 249.9, 328.1, 265.87, 299.37, 170.48, 386.63, 371.15,
      112.63, 270.33
    ],
    [
      90.85, 194.5, 91.42, 194.17, 257.9, 48.98, 36.23, 172.9, 160.05, 185.62,
      217.9, 339.25, 167.75, 63.08, 95.15, 58.97, 105.6, 14.87, 59.83, 23.2,
      48.45, 159.73, 125.37, 215.73, 128.18, 108.88, 246.42, 30.45, 207.88,
      210.65, 117.17, 48.07, 39.07, 216.9, 52.98, 171.33, 213.9, 371.62, 309.95,
      64.6, 256.15, 213.87, 222.52, 58.22, 76.83, 46.05, 107.05, 85.68, 58.55,
      383.23, 146.42, 103.55, 60.13, 210.9, 181.8, 40.22, 107.75, 104.32,
      141.92, 218.22, 283.05, 0, 240, 45.37, 62.18, 33.83, 22.3, 161.62, 168.15,
      26.68, 107.95, 213.9, 216.02, 121.88, 163.72, 108.1, 175.22, 231.38,
      195.35, 192.12, 100.38, 167.7, 186.25, 103.48, 38.83, 80.6, 198.75,
      216.77, 248, 216.4, 223.45, 40.97, 211.78, 165.55, 43.78, 209.65, 109.37,
      194.23, 203.58, 102.42, 95.2, 204.57, 128.07, 153.1, 212.42, 30.78, 213.2,
      175.2, 252.97, 109.27, 100.27, 49.25, 56.85, 204.45, 232.87, 166.6,
      162.55, 167.93, 103.75, 199.78, 58.75, 191.65, 60.8, 43.02, 310.2, 118.05,
      101.5, 367.98, 57.02
    ],
    [
      164.98, 61.22, 170.68, 49.42, 103.68, 266.27, 218.27, 79.47, 85.72, 67.77,
      54.07, 185.02, 98.02, 276, 164.7, 182.32, 150.92, 238.15, 273.7, 233.45,
      258.72, 92.03, 137.78, 52.07, 352.08, 141.32, 370.63, 241.87, 45.42, 53.7,
      125.02, 208.45, 206.05, 46.85, 266.23, 395.23, 46.92, 217.4, 155.73,
      277.5, 101.92, 61.15, 39.38, 191.53, 161.98, 199, 160.47, 154.23, 282.45,
      229, 370.32, 164.17, 273.03, 43.85, 66.28, 250.48, 185.47, 162.65, 100.47,
      59.07, 318.43, 234.95, 0, 228.62, 274.25, 210.82, 224.27, 88.87, 77.78,
      238.9, 137.5, 42.45, 37.92, 143.98, 92.22, 141.87, 66.45, 69.4, 52.85,
      69.18, 160.2, 98.95, 69.18, 141.33, 249.1, 174.47, 61.65, 53.07, 93.77,
      30.28, 57.83, 251.23, 52.83, 91.22, 194.9, 59.67, 153.5, 58.22, 52.88,
      144.72, 319.1, 409.68, 118.62, 88.6, 53.7, 243.32, 42.62, 68.68, 98.73,
      153.38, 170.82, 261.78, 269.77, 58.07, 70.87, 101.32, 86.3, 97.83, 152.57,
      53.57, 282.67, 64.03, 271.07, 254.95, 155.97, 145.13, 146.68, 213.75,
      269.1
    ],
    [
      98.85, 188.27, 83.1, 187.93, 251.68, 75.2, 30.78, 166.67, 153.83, 179.38,
      211.67, 333.02, 161.52, 84.93, 88.92, 52.73, 98.8, 47.08, 82.63, 42.4,
      67.65, 153.5, 110.53, 209.5, 161.02, 104.47, 279.25, 50.8, 201.65, 204.43,
      110.93, 49.77, 47.22, 210.67, 75.17, 204.17, 207.67, 365.4, 303.72, 86.45,
      249.92, 207.63, 216.28, 66.37, 70.6, 54.18, 109.7, 79.45, 91.4, 377,
      179.25, 111.7, 81.98, 204.67, 175.58, 59.42, 115.88, 107.77, 135.7,
      211.98, 315.9, 42.85, 233.77, 0, 83.18, 41.97, 49.83, 155.38, 161.92,
      47.83, 101.72, 207.67, 209.78, 113.97, 157.48, 101.87, 168.98, 225.15,
      189.12, 185.9, 102.52, 161.47, 180.03, 97.25, 58.03, 88.73, 192.52,
      210.53, 241.77, 210.17, 217.22, 60.17, 205.55, 159.32, 37.55, 203.42,
      103.15, 188, 197.37, 96.18, 128.03, 237.4, 121.83, 146.87, 206.18, 52.25,
      206.97, 168.98, 246.73, 103.03, 73.95, 70.72, 78.7, 198.23, 226.63,
      160.37, 156.32, 161.7, 111.88, 193.55, 91.6, 185.42, 80, 61.55, 303.97,
      101.1, 96.33, 361.75, 78.05
    ],
    [
      141.35, 232.63, 127.47, 232.3, 296.05, 18.98, 74.37, 211.03, 198.18,
      223.75, 256.03, 377.38, 205.88, 20.73, 133.28, 97.1, 143.17, 58.5, 12.1,
      48.27, 25.83, 197.87, 163.5, 253.87, 117.17, 147.02, 235.4, 64.27, 246.02,
      248.78, 155.3, 94.13, 89.58, 255.03, 16.65, 160.32, 252.03, 380.77,
      348.08, 17.95, 294.28, 252, 260.65, 108.73, 114.97, 96.55, 154.07, 123.82,
      47.53, 370.13, 135.4, 154.07, 25.45, 249.03, 219.95, 34.12, 158.25,
      152.12, 180.05, 256.35, 272.05, 61.83, 278.13, 84.6, 0, 84.33, 72.8,
      199.75, 206.28, 53.7, 146.08, 252.03, 254.15, 158.33, 201.85, 146.23,
      213.35, 269.52, 233.48, 230.27, 146.88, 205.83, 224.38, 141.62, 32.73,
      131.1, 236.88, 254.9, 286.13, 254.53, 261.58, 55.87, 249.92, 203.68,
      81.92, 247.78, 147.5, 232.37, 241.72, 140.55, 84.18, 193.55, 166.2,
      191.23, 250.55, 42.65, 251.33, 213.33, 291.1, 147.4, 138.4, 61.13, 11.68,
      242.6, 271, 204.73, 200.68, 206.07, 154.25, 237.92, 44.27, 229.78, 13.8,
      61.05, 348.33, 156.2, 140.7, 384.67, 4.52
    ],
    [
      62.07, 168.13, 62.63, 167.8, 231.53, 72.98, 33.27, 146.53, 133.68, 159.25,
      191.52, 312.87, 141.38, 87.08, 68.78, 32.6, 76.82, 45.72, 83.85, 47.2,
      72.45, 133.37, 99, 189.37, 152.18, 82.5, 270.42, 54.47, 181.52, 184.28,
      90.8, 16.5, 10.3, 190.53, 76.98, 195.33, 187.52, 345.25, 283.58, 88.6,
      229.78, 187.5, 196.13, 29.45, 50.47, 17.27, 78.28, 59.32, 82.57, 356.85,
      170.42, 74.78, 84.13, 184.53, 155.43, 64.22, 78.97, 75.55, 115.55, 191.85,
      307.07, 33.47, 213.63, 42.72, 86.2, 0, 21.2, 135.25, 141.78, 50.7, 81.58,
      187.53, 189.65, 93.1, 137.35, 82.15, 148.85, 205.02, 168.97, 165.75, 71.6,
      141.33, 159.88, 77.12, 62.83, 51.82, 172.37, 190.4, 221.63, 190.03,
      197.08, 64.98, 185.42, 139.18, 20.72, 183.28, 83, 167.87, 177.22, 76.05,
      119.2, 228.57, 101.7, 126.73, 186.03, 54.78, 186.83, 148.83, 226.6, 82.9,
      73.9, 73.27, 80.87, 178.08, 206.5, 140.23, 136.18, 141.57, 74.97, 173.42,
      82.77, 165.28, 84.8, 67.03, 283.83, 91.68, 72.72, 341.62, 81.02
    ],
    [
      89.92, 195.03, 90.47, 194.7, 258.45, 74.03, 43.03, 173.43, 160.6, 186.15,
      218.43, 339.78, 168.28, 88.13, 95.68, 59.5, 104.65, 46.77, 84.88, 48.25,
      73.5, 160.27, 125.9, 216.27, 153.23, 109.42, 271.47, 55.5, 208.42, 211.2,
      117.7, 47.13, 38.13, 217.43, 78.03, 196.38, 214.43, 372.17, 310.5, 89.65,
      256.68, 214.4, 223.05, 57.28, 77.37, 45.1, 106.12, 86.22, 83.6, 383.77,
      171.47, 102.62, 85.18, 211.43, 182.35, 65.27, 106.8, 103.38, 142.47,
      218.75, 308.1, 34.5, 240.55, 63.38, 87.23, 32.88, 0, 162.15, 168.7, 51.73,
      108.48, 214.43, 216.57, 120.93, 164.25, 109.98, 175.75, 231.92, 195.88,
      192.67, 99.43, 168.23, 186.8, 104.02, 63.88, 79.65, 199.28, 217.3, 248.53,
      216.93, 223.98, 66.02, 212.32, 166.08, 44.33, 210.18, 109.92, 194.77,
      204.13, 102.95, 120.25, 229.62, 128.6, 153.63, 212.95, 55.83, 213.73,
      175.75, 253.5, 109.8, 100.8, 74.3, 81.92, 205, 233.4, 167.15, 163.08,
      168.47, 102.8, 200.32, 83.82, 192.18, 85.85, 68.07, 310.73, 118.6, 100.55,
      368.52, 82.07
    ],
    [
      97.12, 36.27, 102.82, 35.93, 111.05, 198.4, 150.4, 37.78, 17.85, 42.72,
      61.75, 192.38, 30.15, 208.12, 96.83, 114.43, 83.05, 170.28, 205.83,
      165.58, 190.85, 28.38, 69.92, 62.55, 284.22, 73.43, 378.02, 174, 55.73,
      60.67, 57.15, 140.57, 138.18, 58.67, 198.37, 327.37, 60.23, 224.77, 163.1,
      209.63, 109.28, 64.72, 64.28, 123.67, 94.12, 131.13, 92.58, 86.37, 214.58,
      236.37, 302.45, 96.28, 205.17, 60.17, 23.58, 182.62, 117.6, 94.77, 32.6,
      59.98, 325.8, 167.08, 81.77, 160.75, 206.38, 142.95, 156.4, 0, 9.92,
      171.03, 69.63, 55.67, 57.78, 76.12, 24.35, 74, 16.98, 76.77, 37.12, 33.9,
      92.33, 31.08, 39.27, 73.47, 181.23, 106.6, 55.85, 60.75, 101.13, 58.17,
      65.22, 183.37, 60.5, 23.35, 127.03, 66.75, 85.63, 36, 60.7, 76.85, 251.23,
      360.6, 50.75, 20.73, 54.18, 175.45, 54.97, 16.97, 106.1, 85.52, 102.95,
      193.92, 201.9, 46.23, 78.25, 35.43, 18.43, 31.32, 84.68, 56.9, 214.78,
      34.13, 203.18, 187.08, 163.35, 77.27, 78.82, 221.13, 201.23
    ],
    [
      90.53, 47.28, 96.23, 46.95, 122.07, 191.82, 143.82, 39, 11.27, 51.72,
      72.77, 203.42, 23.55, 201.53, 90.25, 107.85, 76.45, 163.7, 199.25, 159,
      184.25, 21.78, 63.33, 73.57, 277.63, 66.85, 395.85, 167.42, 66.75, 71.68,
      50.55, 133.98, 131.6, 69.68, 191.77, 320.77, 71.27, 235.78, 174.12,
      203.05, 120.32, 75.75, 75.3, 117.08, 87.52, 124.55, 86, 79.78, 208, 247.4,
      295.87, 89.7, 198.58, 77, 34.6, 176.02, 111, 88.18, 26.02, 71, 336.82,
      160.5, 92.8, 154.17, 199.8, 136.35, 149.82, 14.42, 0, 164.43, 63.05, 66.7,
      68.82, 69.53, 17.77, 67.4, 28, 87.78, 48.13, 44.92, 85.73, 24.48, 50.3,
      66.88, 174.63, 100.02, 64.85, 71.77, 112.17, 69.18, 76.23, 176.78, 71.53,
      16.75, 120.43, 75.75, 79.05, 47.02, 69.7, 70.27, 244.65, 354, 44.17,
      14.15, 65.2, 168.85, 66, 28, 117.13, 78.93, 96.37, 187.33, 195.32, 57.25,
      89.27, 28.85, 11.85, 24.73, 78.1, 65.88, 208.2, 45.15, 196.6, 180.5,
      174.37, 70.67, 72.23, 232.15, 194.65
    ],
    [
      109.23, 199.22, 94.05, 198.9, 262.63, 46.2, 40.97, 177.63, 164.78, 190.33,
      222.62, 343.97, 172.48, 55.92, 99.88, 63.7, 109.75, 20.3, 53.63, 7.05,
      38.65, 164.47, 130.08, 220.47, 138.23, 113.6, 256.45, 21.2, 212.62,
      215.38, 121.9, 60.72, 57.45, 221.63, 46.17, 181.37, 218.62, 376.35,
      314.68, 57.43, 260.87, 218.58, 227.23, 76.6, 81.55, 64.43, 120.65, 90.4,
      68.6, 387.95, 156.47, 121.93, 52.97, 215.63, 186.53, 30.42, 126.12,
      118.72, 146.65, 222.93, 293.1, 29.72, 244.73, 51.2, 54.18, 52.22, 40.67,
      166.35, 172.88, 0, 112.68, 218.63, 220.75, 124.93, 168.43, 112.82, 179.93,
      236.12, 200.07, 196.85, 113.47, 172.42, 190.98, 108.22, 29.03, 98.97,
      203.47, 221.48, 252.73, 221.13, 228.17, 18.85, 216.52, 170.28, 48.52,
      214.38, 114.1, 198.95, 208.32, 107.15, 105.25, 214.6, 132.8, 157.82,
      217.13, 23.25, 217.93, 179.93, 257.68, 113.98, 105, 25.57, 49.7, 209.18,
      237.58, 171.33, 167.28, 172.67, 122.12, 204.52, 68.8, 196.38, 50.98,
      20.63, 314.93, 122.78, 107.28, 372.72, 49.03
    ],
    [
      38.57, 96.9, 44.43, 96.58, 159.9, 140.02, 92.02, 74.88, 62.47, 87.6,
      119.88, 241.23, 70.17, 149.75, 38.53, 56.07, 38.37, 111.9, 147.45, 107.22,
      132.47, 61.72, 27.37, 117.73, 225.83, 14.9, 344.07, 115.62, 109.87,
      112.65, 19.17, 82.2, 79.8, 119.32, 139.98, 268.98, 115.88, 273.62, 211.95,
      151.25, 158.13, 115.85, 124.92, 65.13, 35.73, 72.75, 49.42, 27.98, 156.22,
      285.22, 244.07, 48.9, 146.8, 112.88, 84.22, 124.23, 59.05, 47.48, 43.92,
      120.62, 374.65, 108.7, 142.42, 102.38, 148, 84.57, 98.03, 64.03, 70.57,
      112.65, 0, 116.32, 118.43, 28.3, 66.12, 29.32, 77.62, 133.38, 97.75,
      94.53, 42.23, 70.1, 88.25, 28.8, 122.85, 48.07, 100.73, 118.75, 149.98,
      118.82, 124.38, 124.98, 113.78, 67.97, 68.65, 111.63, 40.95, 96.63,
      105.58, 28.75, 192.85, 302.22, 38.03, 55.5, 114.82, 117.07, 115.62, 77.62,
      154.95, 40.85, 44.42, 135.53, 143.52, 106.87, 134.85, 68.6, 64.97, 70.35,
      37.3, 101.78, 156.42, 93.63, 144.82, 128.72, 212.18, 24.08, 34.15, 269.98,
      142.87
    ],
    [
      141.68, 37.77, 147.38, 25.97, 76.42, 242.97, 194.97, 56.02, 62.42, 42.65,
      26.8, 157.75, 74.72, 252.68, 141.4, 159, 127.6, 214.85, 250.4, 210.15,
      235.4, 68.58, 114.48, 27.6, 328.78, 118, 343.37, 218.57, 19.62, 25.72,
      101.7, 185.13, 182.75, 23.72, 242.93, 371.93, 16.92, 190.13, 128.47,
      254.2, 74.65, 34.42, 27.5, 168.23, 138.68, 175.7, 137.15, 130.93, 259.15,
      201.73, 347.02, 140.85, 249.73, 15.52, 42.98, 227.18, 162.15, 139.33,
      77.17, 32.33, 291.17, 211.65, 43, 205.32, 250.95, 187.52, 200.97, 65.57,
      54.48, 215.6, 114.2, 0, 21.1, 120.68, 68.92, 118.57, 43.15, 42.13, 29.4,
      46.55, 136.88, 75.65, 45.73, 118.03, 225.8, 151.17, 34.97, 25.8, 66.5,
      24.48, 30.58, 227.93, 25.57, 67.92, 171.6, 31.27, 130.2, 34.77, 26.4,
      121.42, 295.8, 382.42, 95.32, 65.3, 27.05, 220, 20.03, 45.38, 71.47,
      130.08, 147.52, 238.48, 246.47, 38.12, 43.6, 77.87, 63, 75.88, 129.25,
      31.05, 259.35, 40.58, 247.75, 231.65, 128.7, 121.82, 123.38, 186.48, 245.8
    ],
    [
      141.48, 38.7, 147.18, 26.9, 71.48, 242.77, 194.77, 56.95, 62.22, 50.12,
      18.93, 152.82, 74.52, 252.48, 141.2, 158.8, 127.4, 214.65, 250.2, 209.95,
      235.2, 69.52, 114.28, 17.1, 328.58, 117.8, 338.43, 218.37, 30.38, 17.85,
      101.5, 184.93, 182.55, 15.05, 242.73, 371.73, 21.32, 185.2, 123.53, 254,
      69.72, 24.23, 10.9, 168.03, 138.47, 175.5, 136.95, 130.73, 258.95, 196.8,
      346.82, 140.65, 249.53, 25.37, 42.78, 226.97, 161.95, 139.13, 76.97,
      25.97, 286.23, 211.45, 39.3, 205.12, 250.75, 187.3, 200.77, 65.37, 54.28,
      215.38, 114, 21.38, 0, 120.48, 68.72, 118.35, 42.95, 37.2, 30.33, 45.67,
      136.68, 75.45, 46.67, 117.83, 225.6, 150.97, 41.38, 20.87, 61.57, 15.7,
      25.65, 227.73, 17.7, 67.72, 171.38, 29.47, 130, 35.72, 29.97, 121.22,
      295.6, 377.48, 95.12, 65.1, 18.23, 219.8, 7.65, 45.18, 66.53, 129.88,
      147.32, 238.28, 246.27, 47.03, 38.67, 78.82, 62.8, 75.68, 129.05, 35.1,
      259.15, 41.52, 247.55, 231.45, 123.77, 121.62, 123.18, 181.55, 245.6
    ],
    [
      46.55, 101.5, 60.05, 101.17, 164.92, 150.02, 102.02, 79.9, 67.07, 92.62,
      124.9, 246.25, 74.75, 159.75, 48.9, 66.07, 34.45, 121.9, 157.45, 117.22,
      142.47, 66.73, 37.6, 122.73, 235.83, 30.97, 354.07, 125.62, 114.88,
      117.67, 30.08, 92.2, 89.5, 123.9, 149.98, 278.98, 120.9, 278.63, 216.95,
      161.25, 163.15, 120.87, 129.52, 72.93, 45.73, 82.45, 38.47, 37.98, 166.22,
      290.23, 254.07, 36.47, 156.8, 117.9, 88.82, 134.23, 66.85, 41.75, 54.83,
      125.22, 379.67, 121.28, 147, 112.38, 158, 94.27, 109.02, 68.62, 75.15,
      122.65, 27.17, 120.9, 123.02, 0, 70.72, 21.57, 82.22, 138.38, 102.35,
      99.13, 46.37, 74.7, 93.27, 26.38, 132.85, 55.87, 105.75, 123.77, 155,
      123.4, 130.45, 134.98, 118.78, 72.55, 78.65, 116.65, 37.25, 101.23, 110.6,
      28.47, 202.85, 312.22, 35.07, 60.1, 119.42, 127.07, 120.2, 82.22, 159.97,
      37.13, 62.37, 145.53, 153.52, 111.47, 139.87, 73.6, 69.55, 74.93, 24.87,
      106.78, 166.42, 98.65, 154.82, 138.72, 217.2, 33.88, 30.3, 274.98, 152.87
    ],
    [
      93.42, 48.08, 99.12, 47.75, 119.07, 194.7, 146.7, 34.07, 8.57, 46.77,
      73.57, 200.4, 19.38, 204.42, 93.13, 110.73, 79.33, 166.58, 202.13, 161.88,
      187.13, 12.93, 66.22, 74.37, 280.52, 69.73, 398.75, 170.3, 69.05, 72.48,
      53.43, 136.87, 134.48, 70.48, 194.67, 323.67, 72.05, 232.78, 171.12,
      205.93, 117.32, 75.03, 76.1, 119.97, 90.4, 127.43, 88.88, 82.67, 210.88,
      244.38, 298.75, 92.58, 201.47, 72.07, 35.38, 178.9, 113.88, 91.07, 28.9,
      71.8, 333.82, 163.38, 93.58, 157.05, 202.68, 139.23, 152.7, 15.2, 21.73,
      167.32, 65.93, 67.48, 69.6, 72.42, 0, 70.28, 28.8, 88.58, 48.93, 45.7,
      88.62, 17.43, 47.42, 69.77, 177.53, 102.9, 59.9, 72.57, 109.17, 69.98,
      77.03, 179.67, 72.32, 4.85, 123.32, 70.82, 81.93, 47.82, 64.75, 73.15,
      247.53, 356.88, 47.05, 16.15, 66, 171.73, 66.78, 28.78, 114.12, 81.82,
      99.25, 190.22, 198.2, 58.83, 90.05, 22.4, 11.47, 17.67, 80.98, 60.95,
      211.08, 45.95, 199.48, 183.38, 171.37, 73.55, 75.12, 229.15, 197.53
    ],
    [
      35.62, 104.5, 49.3, 104.17, 167.92, 141.52, 93.52, 82.9, 70.05, 95.62,
      127.9, 249.25, 77.75, 151.23, 34.25, 57.55, 19.82, 113.4, 148.95, 108.7,
      133.95, 69.73, 41.22, 125.73, 227.33, 34.58, 345.57, 117.12, 117.88,
      120.65, 33.68, 83.68, 78.75, 126.9, 141.48, 270.48, 123.9, 281.62, 219.95,
      152.75, 166.15, 123.87, 132.52, 62.17, 37.23, 71.7, 26.5, 29.48, 157.7,
      293.23, 245.57, 29.53, 148.28, 120.9, 91.82, 125.73, 56.1, 30.9, 58.45,
      128.22, 382.65, 110.52, 150, 103.87, 149.5, 83.5, 98.27, 71.62, 78.15,
      114.15, 30.78, 123.9, 126.02, 22.92, 73.72, 0, 85.22, 141.38, 105.35,
      102.13, 31.73, 77.7, 96.25, 10.02, 124.35, 45.1, 108.75, 126.77, 158,
      126.4, 133.45, 126.48, 121.78, 75.55, 70.15, 119.65, 25.23, 104.23,
      113.58, 18.08, 194.35, 303.72, 38.07, 63.1, 122.42, 118.55, 123.2, 85.2,
      162.97, 25.13, 55.6, 137.03, 145.02, 114.47, 142.87, 76.6, 72.55, 77.93,
      17.93, 109.78, 157.9, 101.65, 146.3, 130.2, 220.2, 37.5, 15.65, 277.98,
      144.35
    ],
    [
      103.8, 25.5, 109.5, 25.17, 100.3, 205.08, 157.08, 26.33, 24.53, 31.68,
      50.98, 181.63, 36.83, 214.82, 103.52, 121.13, 89.73, 176.97, 212.52,
      172.27, 197.53, 35.07, 76.6, 51.78, 290.9, 80.13, 367.25, 180.68, 44.97,
      49.9, 63.83, 147.27, 144.87, 47.9, 205.05, 334.05, 49.48, 214, 152.33,
      216.32, 98.53, 53.97, 53.52, 130.35, 100.8, 137.82, 99.28, 93.05, 221.27,
      225.62, 309.13, 102.98, 211.85, 49.4, 12.13, 189.3, 124.28, 101.47, 39.28,
      49.22, 315.03, 173.77, 71.02, 167.43, 213.07, 149.63, 163.08, 27.68, 16.6,
      177.72, 76.32, 44.92, 47.03, 82.8, 31.03, 80.68, 0, 66.02, 26.35, 23.13,
      99.02, 37.77, 28.52, 80.15, 187.92, 113.28, 44.82, 49.98, 90.38, 47.4,
      54.45, 190.05, 49.75, 30.03, 133.72, 55.73, 92.32, 25.23, 49.67, 83.53,
      257.92, 367.28, 57.43, 27.42, 43.42, 182.13, 44.22, 7.38, 95.35, 92.2,
      109.63, 200.6, 208.58, 35.47, 67.48, 42.13, 25.12, 38, 91.38, 45.87,
      221.48, 23.37, 209.88, 193.77, 152.58, 83.95, 85.5, 210.37, 207.92
    ],
    [
      162.32, 59.23, 168.02, 47.43, 71.88, 263.6, 215.6, 71.45, 83.05, 58.1,
      39.23, 153.22, 95.35, 273.33, 162.05, 179.65, 148.25, 235.48, 271.03,
      230.8, 256.05, 84.02, 135.12, 42, 349.42, 138.65, 338.83, 239.2, 50.92,
      36.68, 122.35, 205.78, 203.38, 32.6, 263.57, 392.57, 46.25, 185.58,
      123.92, 274.83, 70.12, 35.8, 44.65, 188.87, 159.32, 196.33, 157.8, 151.57,
      279.78, 197.2, 367.65, 161.5, 270.37, 47.45, 63.62, 247.82, 182.8, 159.98,
      97.8, 31.58, 286.62, 232.28, 68.82, 225.95, 271.58, 208.15, 221.62, 86.2,
      75.13, 236.23, 134.83, 42.97, 40.07, 141.33, 89.55, 139.2, 63.78, 0,
      50.87, 66.52, 157.53, 96.28, 64.95, 138.68, 246.43, 171.8, 56.25, 29.53,
      61.97, 45.2, 28.67, 248.57, 33.72, 88.55, 192.23, 44.85, 150.83, 56.23,
      52.53, 142.05, 316.43, 377.88, 115.95, 85.93, 27.75, 240.65, 36.95, 66.02,
      66.93, 150.72, 168.15, 259.12, 267.1, 67.88, 2.73, 93.3, 83.63, 96.52,
      149.9, 57.45, 280, 62.05, 268.4, 252.28, 124.17, 142.47, 144.02, 181.95,
      266.43
    ],
    [
      125.88, 20.7, 131.58, 5.02, 83.92, 227.17, 179.17, 38.95, 46.62, 32.12,
      34.3, 165.25, 58.92, 236.9, 125.62, 143.22, 111.82, 199.05, 234.6, 194.37,
      219.62, 51.52, 98.68, 35.1, 312.98, 102.22, 350.88, 202.77, 29.75, 33.22,
      85.92, 169.35, 166.95, 31.23, 227.13, 356.13, 34.45, 197.63, 135.97,
      238.4, 82.15, 38.93, 36.95, 152.43, 122.88, 159.9, 121.37, 115.13, 243.35,
      209.23, 331.22, 125.07, 233.93, 32.72, 27.18, 211.38, 146.37, 123.55,
      61.37, 34.2, 298.67, 195.85, 55.98, 189.52, 235.15, 171.72, 185.18, 49.77,
      38.7, 199.8, 98.4, 28.23, 30.55, 104.9, 53.12, 102.77, 27.35, 49.63, 0,
      29.5, 121.1, 59.85, 28.67, 102.25, 210, 135.37, 43.9, 33.32, 74, 32.38,
      38.08, 212.13, 33.07, 52.12, 155.8, 44.83, 114.4, 17.72, 42.35, 105.62,
      280, 389.37, 79.52, 49.5, 28.4, 204.22, 27.53, 29.58, 78.97, 114.28,
      131.72, 222.68, 230.67, 31.72, 51.12, 60.82, 47.2, 60.08, 113.47, 40.9,
      243.57, 23.52, 231.97, 215.85, 136.22, 106.03, 107.58, 194, 230
    ],
    [
      118.72, 28.37, 124.42, 28.03, 102.95, 220, 172, 40.2, 39.45, 33.37, 53.85,
      184.28, 51.73, 229.72, 118.43, 136.03, 104.63, 191.88, 227.43, 187.18,
      212.43, 52.77, 91.52, 54.65, 305.82, 95.03, 369.92, 195.6, 47.63, 52.77,
      78.73, 162.17, 159.78, 50.77, 219.95, 348.95, 52.13, 216.67, 155, 231.23,
      101.2, 56.63, 56.18, 145.27, 115.7, 152.73, 114.18, 107.97, 236.18,
      228.27, 324.05, 117.88, 226.77, 52.27, 15.22, 204.2, 139.18, 116.37, 54.2,
      51.88, 317.7, 188.68, 73.68, 182.35, 227.98, 164.53, 178, 42.6, 31.52,
      192.62, 91.23, 47.78, 49.7, 97.72, 45.95, 95.58, 20.05, 68.67, 29.22, 0,
      113.92, 52.67, 29.92, 95.07, 202.82, 128.2, 46.5, 52.85, 93.05, 50.07,
      57.12, 204.97, 52.62, 44.93, 148.62, 57.4, 107.23, 25.25, 51.33, 98.45,
      272.83, 382.18, 72.35, 42.33, 46.08, 197.03, 47.08, 22.28, 98.02, 107.12,
      124.55, 215.52, 223.5, 30.55, 70.15, 57.03, 40.03, 52.92, 106.28, 47.53,
      236.38, 24.77, 224.78, 208.68, 155.25, 98.85, 100.42, 213.03, 222.83
    ],
    [
      22.35, 120.62, 36.03, 120.28, 184.03, 138.08, 90.08, 99.02, 86.18, 111.73,
      144.02, 265.37, 93.87, 147.82, 30.2, 54.13, 23.13, 109.52, 145.52, 105.28,
      130.53, 85.85, 56.68, 141.85, 215.98, 40.2, 334.22, 113.68, 134, 136.78,
      48.5, 80.27, 65.48, 143.02, 138.05, 259.13, 140.02, 297.75, 236.07,
      149.32, 182.27, 139.98, 148.63, 48.9, 33.8, 58.43, 14.72, 26.05, 146.35,
      309.35, 234.22, 15.08, 144.85, 137.02, 107.93, 122.3, 42.83, 10.27, 73.25,
      144.33, 370.85, 97.25, 166.12, 100.43, 146.07, 70.23, 85, 87.73, 94.27,
      110.72, 39.28, 140.02, 142.13, 48.23, 89.83, 34.83, 101.33, 157.5, 121.47,
      118.25, 0, 93.82, 112.38, 29.6, 120.92, 31.83, 124.87, 142.88, 174.12,
      142.52, 149.57, 123.05, 137.9, 91.67, 66.72, 135.77, 22.37, 120.35,
      129.72, 28.53, 183, 292.37, 54.18, 79.22, 138.53, 115.13, 139.32, 101.33,
      179.08, 22.25, 52.17, 133.6, 141.58, 130.58, 158.98, 92.72, 88.67, 94.05,
      30.1, 125.9, 146.57, 117.77, 142.88, 126.77, 236.32, 49.38, 23.2, 294.1,
      140.92
    ],
    [
      94.45, 58.93, 100.32, 58.6, 124.82, 195.9, 147.9, 39.82, 19.25, 52.53,
      84.42, 206.17, 4.6, 205.62, 94.4, 111.93, 82.53, 167.78, 203.33, 163.08,
      188.33, 19.25, 67.25, 82.65, 281.72, 70.77, 399.93, 171.5, 74.8, 77.57,
      54.48, 138.07, 135.68, 81.33, 195.85, 324.85, 82.9, 238.53, 176.87,
      207.13, 123.07, 80.78, 86.95, 121, 91.6, 128.63, 92.08, 83.87, 212.08,
      250.15, 299.95, 95.78, 202.67, 77.82, 46.23, 180.1, 114.93, 94.27, 29.93,
      82.65, 339.57, 164.58, 104.43, 158.25, 203.88, 140.43, 153.9, 26.05,
      32.58, 168.52, 66.97, 78.33, 80.45, 75.62, 19.68, 73.48, 39.65, 99.43,
      59.78, 56.55, 91.82, 0, 53.17, 72.97, 178.72, 103.93, 65.67, 83.42,
      114.92, 80.83, 87.88, 180.87, 78.7, 20.97, 124.52, 76.57, 85.12, 58.67,
      70.5, 76.35, 248.73, 358.08, 50.23, 20.57, 76.85, 172.93, 77.63, 39.63,
      119.88, 85.02, 100.28, 191.42, 199.4, 54.88, 100.9, 26.32, 15.92, 13.73,
      84.18, 66.7, 212.28, 56.8, 200.68, 184.58, 177.12, 74.6, 78.32, 234.9,
      198.73
    ],
    [
      114.55, 24, 120.42, 24.45, 87.53, 216, 168, 22.08, 46.98, 15.23, 47.52,
      168.87, 51.7, 225.73, 114.52, 132.05, 100.9, 187.88, 223.43, 183.18,
      208.45, 34.65, 87.35, 45.37, 301.82, 90.88, 354.5, 191.6, 37.52, 40.28,
      74.58, 158.18, 155.78, 47.18, 215.97, 344.97, 43.52, 201.25, 139.58,
      227.23, 85.78, 43.5, 52.92, 141.12, 111.72, 148.73, 110.45, 103.97,
      232.18, 212.85, 320.05, 114.15, 222.77, 40.53, 29.4, 200.22, 135.03,
      112.63, 50.03, 49.03, 302.28, 184.68, 71.95, 178.35, 223.98, 160.55, 174,
      50.88, 40.92, 188.63, 87.07, 44.18, 46.52, 93.98, 47.42, 91.85, 29.58,
      61.02, 25.63, 29.33, 110.18, 49.77, 0, 91.33, 198.83, 124.03, 28.37,
      46.38, 77.63, 48.33, 52.02, 200.97, 41.42, 44.72, 144.63, 39.28, 103.48,
      24.52, 33.22, 94.72, 268.83, 378.2, 68.6, 42.35, 44.35, 193.05, 43.48,
      31.82, 82.58, 103.38, 120.38, 211.52, 219.5, 33.73, 62.48, 43.93, 49.42,
      50, 102.55, 29.42, 232.4, 15.33, 220.8, 204.68, 139.83, 94.7, 96.68,
      197.62, 218.83
    ],
    [
      35.58, 103.1, 43.38, 102.78, 166.52, 138.97, 90.97, 81.52, 68.67, 94.22,
      126.5, 247.85, 76.37, 148.7, 34.23, 55.02, 16.98, 110.85, 146.4, 106.17,
      131.42, 68.35, 39.82, 124.35, 224.78, 33.2, 343.02, 114.57, 116.5, 119.27,
      32.3, 81.15, 78.75, 125.52, 138.93, 267.93, 122.5, 280.23, 218.57, 150.2,
      164.75, 122.47, 131.12, 62.15, 34.68, 71.7, 21.22, 26.93, 155.15, 291.83,
      243.02, 22.95, 145.73, 119.52, 90.42, 123.18, 56.07, 24.92, 57.05, 126.82,
      381.27, 107.65, 148.62, 101.32, 146.95, 83.52, 96.98, 70.23, 76.77, 111.6,
      29.38, 122.52, 124.63, 25.72, 72.32, 10.03, 83.82, 140, 103.95, 100.73,
      31.7, 76.3, 94.87, 0, 121.8, 45.07, 107.35, 125.37, 156.62, 125.02,
      132.05, 123.93, 120.4, 74.17, 67.6, 118.27, 18.17, 102.83, 112.2, 17.42,
      191.8, 301.17, 36.68, 61.7, 121.02, 116.02, 121.82, 83.82, 161.57, 18.07,
      53.05, 134.48, 142.47, 113.07, 141.47, 75.22, 71.17, 76.55, 20.73, 108.4,
      155.37, 100.27, 143.77, 127.65, 218.82, 36.12, 15.63, 276.6, 141.8
    ],
    [
      122.52, 212.6, 107.43, 212.27, 276.02, 28.88, 54.35, 191, 178.17, 203.72,
      236, 357.35, 185.85, 38.6, 113.25, 77.07, 123.13, 38.47, 36.32, 28.23,
      21.33, 177.83, 143.47, 233.83, 127.37, 126.98, 245.6, 44.23, 225.98,
      228.77, 135.27, 74.1, 70.73, 235, 28.85, 170.52, 232, 389.73, 328.05,
      40.12, 274.25, 231.97, 240.62, 89.88, 94.93, 77.7, 134.03, 103.78, 57.75,
      380.33, 145.6, 135.22, 35.65, 229, 199.92, 7.92, 139.4, 132.1, 160.03,
      236.32, 282.25, 43, 258.1, 64.57, 36.87, 65.48, 53.95, 179.72, 186.25,
      33.67, 126.05, 232, 234.12, 138.3, 181.82, 126.2, 193.32, 249.48, 213.45,
      210.23, 126.85, 185.8, 204.37, 121.58, 0, 112.25, 216.85, 234.87, 266.1,
      234.5, 241.55, 35.83, 229.88, 183.65, 61.88, 227.75, 127.48, 212.33,
      221.7, 120.52, 94.38, 203.75, 146.17, 171.2, 230.52, 22.62, 231.3, 193.32,
      271.07, 127.37, 118.37, 41.1, 32.38, 222.57, 250.97, 184.7, 180.65,
      186.03, 135.4, 217.88, 60.45, 209.75, 33.67, 41.02, 328.3, 136.17, 120.67,
      386.08, 31.72
    ],
    [
      20.92, 129.83, 21.47, 129.5, 192.83, 119.97, 79.5, 107.82, 95.4, 120.53,
      152.82, 274.17, 103.08, 134.07, 34.38, 45.65, 35.65, 92.7, 130.82, 94.18,
      119.43, 94.65, 60.28, 150.65, 199.17, 43.8, 317.4, 101.43, 142.8, 145.57,
      52.08, 64.18, 48.67, 152.23, 123.97, 242.32, 148.82, 306.53, 244.87,
      135.58, 191.07, 148.78, 157.85, 32.08, 28.23, 41.62, 37.12, 29.65, 129.53,
      318.15, 217.4, 33.62, 131.12, 145.82, 117.15, 111.2, 37.8, 34.38, 76.85,
      153.55, 354.03, 80.43, 175.35, 89.7, 133.17, 53.42, 68.18, 96.95, 103.5,
      97.67, 42.87, 149.23, 151.37, 51.93, 99.05, 41, 110.55, 166.3, 130.68,
      127.47, 30.43, 103.03, 121.17, 40.78, 109.82, 0, 133.67, 151.68, 182.92,
      151.73, 157.3, 111.95, 146.7, 100.88, 56.12, 144.57, 44.12, 129.57, 138.5,
      37.98, 166.18, 275.55, 65.22, 88.43, 147.75, 101.77, 148.53, 110.55,
      187.88, 44, 46.1, 120.23, 127.85, 139.8, 167.78, 101.52, 97.88, 103.27,
      33.8, 134.7, 129.75, 126.57, 131.78, 114, 245.12, 52.98, 31.55, 302.9, 128
    ],
    [
      126.17, 39.65, 132.03, 36.63, 80.52, 227.62, 179.62, 33.7, 58.6, 20.37,
      40.5, 161.85, 63.33, 237.35, 126.13, 143.67, 112.52, 199.5, 235.05,
      194.82, 220.07, 46.27, 98.97, 38.35, 313.43, 102.5, 347.48, 203.22, 22.6,
      33.27, 86.2, 169.8, 167.4, 40.93, 227.58, 356.58, 28.6, 194.23, 132.57,
      238.85, 78.77, 36.48, 46.65, 152.73, 123.33, 160.35, 122.07, 115.58,
      243.8, 205.83, 331.67, 125.77, 234.38, 25.95, 42.97, 211.83, 146.65,
      124.25, 61.67, 42.02, 295.27, 196.3, 64.88, 189.97, 235.6, 172.17, 185.63,
      62.5, 55.53, 200.25, 98.7, 33.05, 40.27, 105.6, 59.05, 103.47, 44.2, 54,
      40.05, 43.97, 121.8, 61.38, 27.2, 102.95, 210.45, 135.65, 0, 39.38, 70.62,
      41.77, 45, 212.58, 34.4, 56.33, 156.25, 32.27, 115.1, 39.15, 20.68,
      106.33, 280.45, 389.82, 80.23, 53.97, 37.77, 204.67, 37.23, 46.43, 75.58,
      115, 132.02, 223.13, 231.12, 48.37, 55.48, 55.55, 60.27, 61.62, 114.17,
      12.85, 244.02, 32.6, 232.42, 216.3, 132.82, 106.32, 108.3, 190.6, 230.45
    ],
    [
      147.87, 43.95, 153.57, 32.15, 58, 249.15, 201.15, 57.58, 68.6, 44.23,
      19.4, 139.35, 80.9, 258.88, 147.6, 165.2, 133.8, 221.03, 256.58, 216.35,
      241.6, 70.13, 120.67, 26.72, 334.97, 124.2, 324.97, 224.75, 35.63, 22.82,
      107.9, 191.33, 188.93, 19.58, 249.12, 378.12, 31.58, 171.72, 110.05,
      260.38, 56.25, 18.85, 31.18, 174.42, 144.87, 181.88, 143.35, 137.12,
      265.33, 183.33, 353.2, 147.05, 255.92, 32.18, 49.17, 233.37, 168.35,
      145.53, 83.35, 12.48, 272.75, 217.83, 53.53, 211.5, 257.13, 193.7, 207.17,
      71.75, 60.68, 221.78, 120.38, 27.68, 24.78, 126.88, 75.1, 124.75, 49.33,
      28.17, 35.58, 52.73, 143.08, 81.83, 51.08, 124.23, 231.98, 157.35, 42.38,
      0, 48.1, 29.93, 15.02, 234.12, 19.85, 74.1, 177.78, 30.98, 136.38, 40.97,
      38.67, 127.6, 301.98, 364.02, 101.5, 71.48, 14.13, 226.2, 21.67, 51.57,
      53.07, 136.27, 153.7, 244.67, 252.65, 56.47, 29.63, 79.43, 69.18, 82.07,
      135.45, 43.58, 265.55, 46.77, 253.95, 237.83, 110.3, 128.02, 129.57,
      168.08, 251.98
    ],
    [
      183.1, 87.93, 188.97, 76.13, 22.15, 284.55, 236.55, 90.63, 111.77, 77.3,
      59.02, 103.73, 120.27, 294.28, 183.07, 200.6, 169.45, 256.43, 291.98,
      251.75, 277, 103.2, 155.92, 60.1, 370.37, 159.43, 289.37, 260.15, 79.62,
      55.87, 143.13, 226.73, 224.33, 60.62, 284.52, 347.6, 66.07, 136.12, 74.45,
      295.78, 20.65, 54.98, 72.67, 209.67, 180.27, 217.28, 179, 172.52, 300.75,
      147.72, 388.6, 182.7, 291.33, 79.03, 92.32, 268.77, 203.58, 181.18, 118.6,
      55.28, 237.15, 253.23, 97.52, 246.92, 292.53, 229.1, 242.57, 114.9,
      103.83, 257.18, 155.63, 71.67, 68.77, 162.53, 115.98, 160.4, 92.48, 64.22,
      79.57, 95.22, 178.73, 118.32, 84.13, 159.88, 267.38, 192.6, 75.43, 49.6,
      0, 73.92, 55.22, 269.52, 52.9, 113.27, 213.18, 64.05, 172.05, 84.95,
      71.72, 163.27, 337.38, 328.42, 137.17, 110.92, 55.17, 261.6, 65.65, 94.73,
      9.83, 171.93, 188.95, 280.07, 288.05, 96.58, 65.7, 112.48, 112.33, 118.55,
      171.1, 76.63, 300.95, 89.53, 289.35, 273.25, 74.7, 163.25, 165.23, 132.48,
      287.4
    ],
    [
      142.13, 39.37, 147.85, 27.57, 80.83, 243.43, 195.43, 57.62, 62.88, 50.78,
      31.23, 162.17, 75.17, 253.15, 141.87, 159.47, 128.07, 215.32, 250.87,
      210.62, 235.87, 70.18, 114.95, 29.23, 329.25, 118.47, 347.8, 219.03,
      31.05, 30.85, 102.17, 185.6, 183.22, 24, 243.38, 372.38, 24.07, 194.55,
      132.88, 254.67, 79.08, 38.3, 16.55, 168.7, 139.13, 176.17, 137.62, 131.4,
      259.62, 206.15, 347.48, 141.32, 250.2, 27.37, 43.43, 227.63, 162.62,
      139.8, 77.63, 36.22, 295.58, 212.12, 29.68, 205.78, 251.42, 187.97,
      201.43, 66.03, 54.95, 216.05, 114.67, 26.4, 15.07, 121.15, 69.38, 119.02,
      43.62, 46.55, 31, 46.33, 137.35, 76.1, 47.33, 118.5, 226.25, 151.63,
      42.05, 30.23, 70.93, 0, 35, 228.4, 29.98, 68.37, 172.05, 36.83, 130.65,
      36.37, 31.97, 121.88, 296.27, 386.85, 95.78, 65.77, 31.48, 220.47, 19.77,
      45.85, 75.88, 130.55, 147.98, 238.95, 246.92, 47.7, 48.03, 79.47, 63.47,
      76.35, 129.72, 37.12, 259.82, 42.18, 248.22, 232.12, 133.13, 122.28,
      123.85, 190.92, 246.27
    ],
    [
      146.47, 43.38, 152.18, 31.58, 60.23, 247.75, 199.75, 59.8, 67.22, 46.45,
      23.38, 141.57, 79.5, 257.48, 146.2, 163.8, 132.4, 219.63, 255.18, 214.95,
      240.2, 72.37, 119.27, 26.15, 333.57, 122.8, 327.18, 223.35, 35.07, 24.27,
      106.5, 189.93, 187.55, 16.75, 247.72, 376.72, 30.4, 173.95, 112.28, 259,
      58.47, 22.85, 28.8, 173.03, 143.47, 180.48, 141.95, 135.73, 263.95,
      185.55, 351.8, 145.65, 254.53, 31.62, 47.77, 231.97, 166.95, 144.13,
      81.95, 15.73, 274.98, 216.45, 52.97, 210.12, 255.73, 192.3, 205.77, 70.35,
      59.28, 220.38, 118.98, 27.12, 24.23, 125.48, 73.7, 123.35, 47.95, 25.75,
      35.02, 50.67, 141.68, 80.43, 51.35, 122.83, 230.58, 155.95, 44.6, 13.35,
      50.32, 29.37, 0, 232.72, 22.07, 72.7, 176.38, 33.22, 134.98, 40.4, 39.6,
      126.22, 300.58, 366.23, 100.1, 70.08, 11.9, 224.8, 21.12, 50.18, 55.28,
      134.88, 152.3, 243.27, 251.25, 52.03, 27.23, 81.65, 67.78, 80.67, 134.05,
      45.57, 264.15, 46.2, 252.55, 236.45, 112.52, 126.62, 128.18, 170.3, 250.6
    ],
    [
      121.25, 210.67, 105.48, 210.33, 274.07, 46.85, 52.4, 189.07, 176.22,
      201.78, 234.07, 355.42, 183.92, 56.58, 111.32, 75.13, 121.2, 36.53, 54.28,
      26.3, 39.3, 175.9, 141.53, 231.9, 141.05, 125.05, 259.28, 23.35, 224.05,
      226.82, 133.33, 72.17, 69.68, 233.07, 46.82, 184.2, 230.07, 387.78,
      326.12, 58.08, 272.32, 230.03, 238.68, 88.85, 93, 76.67, 132.1, 101.85,
      71.42, 399.4, 159.28, 134.1, 53.62, 227.07, 197.97, 31.07, 138.37, 130.15,
      158.08, 234.38, 295.92, 41.95, 256.17, 62.63, 54.83, 64.45, 52.92, 177.78,
      184.32, 19.45, 124.12, 230.07, 232.18, 136.37, 179.88, 124.27, 191.38,
      247.55, 211.52, 208.28, 124.92, 183.87, 202.42, 119.65, 29.68, 111.22,
      214.92, 232.93, 264.17, 232.57, 239.62, 0, 227.95, 181.72, 59.95, 225.82,
      125.53, 210.4, 219.75, 118.58, 108.07, 217.43, 144.23, 169.27, 228.58,
      18.12, 229.37, 191.37, 269.13, 125.43, 116.43, 13.9, 50.35, 220.62,
      249.03, 182.77, 178.72, 184.1, 134.3, 215.95, 71.63, 207.82, 51.65, 3.72,
      326.37, 134.22, 118.73, 384.15, 49.68
    ],
    [
      142, 45.03, 147.87, 33.23, 61.63, 243.45, 195.45, 49.53, 69.68, 36.18,
      12.08, 142.97, 79.15, 253.17, 141.95, 159.48, 128.35, 215.33, 250.88,
      210.63, 235.88, 62.08, 114.8, 8.63, 329.27, 118.32, 328.58, 219.05, 34.67,
      4.58, 102.03, 185.62, 183.23, 22.28, 243.4, 372.4, 14.78, 175.35, 113.68,
      254.68, 59.87, 14.22, 28.7, 168.55, 139.15, 176.18, 137.9, 131.42, 259.63,
      186.95, 347.5, 141.6, 250.22, 25, 50.25, 227.65, 162.48, 140.08, 77.48,
      16.22, 276.38, 212.13, 54.62, 205.8, 251.43, 187.98, 201.45, 72.83, 61.77,
      216.07, 114.52, 28.77, 25.87, 121.42, 74.87, 119.3, 50.42, 35.1, 36.67,
      53.82, 137.63, 77.2, 43.03, 118.77, 226.27, 151.48, 34.33, 20.48, 51.72,
      31.02, 26.1, 228.42, 0, 72.17, 172.07, 15.33, 130.93, 42.05, 23.22,
      122.15, 296.28, 367.63, 96.05, 69.8, 18.22, 220.48, 16.03, 52.65, 56.68,
      130.82, 147.83, 238.97, 246.95, 50.5, 36.58, 71.38, 70.27, 77.45, 130,
      29.2, 259.83, 47.85, 248.23, 232.13, 113.92, 122.15, 124.12, 171.7, 246.28
    ],
    [
      93.48, 46.75, 99.18, 46.43, 121.55, 194.77, 146.77, 35.98, 6.95, 48.7,
      72.23, 202.88, 19.45, 204.5, 93.22, 110.82, 79.42, 166.65, 202.2, 161.97,
      187.22, 13.97, 66.28, 73.03, 280.58, 69.82, 398.82, 170.37, 66.22, 71.15,
      53.52, 136.95, 134.55, 69.17, 194.73, 323.73, 70.73, 235.27, 173.6, 206,
      119.78, 75.22, 74.77, 120.03, 90.48, 127.5, 88.97, 82.73, 210.97, 246.87,
      298.82, 92.67, 201.55, 70.65, 34.07, 178.98, 113.97, 91.15, 28.97, 70.47,
      336.3, 163.45, 92.27, 157.13, 202.75, 139.32, 152.78, 13.88, 20.42, 167.4,
      66, 66.17, 68.28, 72.5, 3.57, 70.37, 27.48, 87.27, 47.6, 44.38, 88.7,
      17.5, 49.77, 69.85, 177.6, 102.97, 61.83, 71.25, 111.63, 68.67, 75.7,
      179.73, 71, 0, 123.4, 72.73, 82, 46.48, 66.67, 73.22, 247.6, 356.97,
      47.12, 16.23, 64.67, 171.82, 65.47, 27.47, 116.6, 81.88, 99.32, 190.28,
      198.27, 56.72, 88.73, 22.48, 13.58, 17.75, 81.07, 62.87, 211.17, 44.62,
      199.57, 183.47, 173.83, 73.63, 75.2, 231.62, 197.62
    ],
    [
      65.73, 155.15, 49.97, 154.82, 218.55, 74.35, 26.35, 133.55, 120.7, 146.27,
      178.53, 299.88, 128.4, 84.07, 55.8, 19.62, 65.68, 46.23, 81.78, 41.53,
      66.78, 120.38, 86.02, 176.38, 160.17, 69.52, 278.4, 49.95, 168.53, 171.3,
      77.82, 15.3, 26.07, 177.55, 74.32, 203.32, 174.53, 332.27, 270.6, 85.58,
      216.8, 174.52, 183.15, 33.63, 37.48, 28.48, 76.57, 46.33, 90.53, 343.87,
      178.4, 78.58, 81.12, 171.55, 142.45, 58.57, 83.15, 74.63, 102.57, 178.87,
      315.03, 43.03, 200.65, 36.7, 82.33, 20.82, 32.35, 122.27, 128.8, 46.98,
      68.6, 174.55, 176.67, 80.85, 124.37, 68.73, 135.87, 192.03, 155.98,
      152.77, 69.4, 128.35, 146.9, 64.13, 57.18, 56, 159.38, 177.42, 208.65,
      177.05, 184.1, 59.32, 172.43, 126.2, 0, 170.3, 70.02, 154.88, 164.23,
      63.07, 127.18, 236.55, 88.72, 113.75, 173.05, 51.38, 173.85, 135.85,
      213.62, 69.92, 60.92, 69.87, 77.85, 165.1, 193.52, 127.25, 123.2, 128.58,
      78.78, 160.43, 90.73, 152.3, 79.13, 63.03, 270.85, 78.7, 63.22, 328.63,
      77.18
    ],
    [
      138.62, 52.1, 144.48, 47.22, 67.1, 240.07, 192.07, 46.15, 71.05, 32.8,
      24.03, 148.43, 75.77, 249.78, 138.57, 156.1, 124.97, 211.95, 247.5,
      207.25, 232.5, 58.7, 111.42, 21.88, 325.88, 114.93, 334.07, 215.67, 40.25,
      16.82, 98.65, 182.23, 179.85, 36.97, 240.02, 369.02, 23.25, 180.82,
      119.15, 251.3, 65.33, 23.05, 42.67, 165.17, 135.77, 172.8, 134.52, 128.03,
      256.25, 192.42, 344.12, 138.22, 246.83, 32.18, 55.4, 224.27, 159.1, 136.7,
      74.1, 28.6, 281.85, 208.75, 64.27, 202.42, 248.05, 184.6, 198.07, 74.93,
      67.98, 212.68, 111.13, 37.62, 39.85, 118.03, 71.48, 115.92, 56.65, 40.58,
      50.63, 56.4, 134.25, 73.82, 39.65, 115.38, 222.88, 148.1, 30.95, 25.95,
      57.18, 43.15, 31.58, 225.03, 17.27, 68.78, 168.68, 0, 127.55, 51.58,
      27.23, 118.77, 292.9, 373.1, 92.67, 66.42, 31.53, 217.1, 30.02, 58.88,
      62.15, 127.43, 144.45, 235.58, 243.57, 56.4, 42.05, 68, 72.7, 74.07,
      126.62, 32.15, 256.45, 45.03, 244.85, 228.75, 119.38, 118.77, 120.73,
      177.18, 242.9
    ],
    [
      33.48, 110.45, 43.55, 110.12, 173.85, 139.13, 91.13, 88.85, 76, 101.57,
      133.83, 255.18, 83.7, 148.85, 37.57, 55.17, 11.43, 111.02, 146.57, 106.32,
      131.57, 75.68, 47.15, 131.68, 224.95, 40.53, 343.18, 114.73, 123.83,
      126.6, 39.63, 81.3, 78.92, 132.85, 139.1, 268.1, 129.83, 287.57, 225.9,
      150.37, 172.1, 129.82, 138.45, 61.45, 34.85, 71.87, 10.28, 27.1, 155.32,
      299.17, 243.18, 12.3, 145.9, 126.85, 97.75, 123.35, 55.37, 11.25, 64.4,
      134.17, 379.82, 107.82, 155.95, 101.48, 147.12, 83.68, 97.13, 77.57, 84.1,
      111.77, 36.73, 129.85, 131.97, 36.15, 79.67, 24.03, 91.17, 147.33, 111.28,
      108.07, 16.1, 83.65, 102.2, 19.43, 121.97, 44.38, 114.68, 132.72, 163.95,
      132.35, 139.4, 124.1, 127.73, 81.5, 67.77, 125.6, 0, 110.18, 119.53,
      16.83, 191.97, 301.33, 44.02, 69.05, 128.35, 116.17, 129.15, 91.15,
      168.92, 3.48, 53.22, 134.65, 142.63, 120.4, 148.82, 82.55, 78.5, 83.88,
      26.07, 115.73, 155.52, 107.6, 143.92, 127.82, 226.15, 43.45, 12.93,
      283.93, 141.97
    ],
    [
      124.32, 16.9, 130.02, 17.67, 93.1, 225.6, 177.6, 37.38, 45.05, 30.53,
      43.48, 174.43, 57.35, 235.32, 124.03, 141.63, 110.23, 197.48, 233.03,
      192.78, 218.03, 49.95, 97.12, 44.28, 311.42, 100.63, 360.05, 201.2, 38.92,
      42.4, 84.33, 167.77, 165.38, 40.4, 225.57, 354.57, 43.63, 206.8, 145.13,
      236.83, 91.33, 48.12, 46.13, 150.87, 121.3, 158.33, 119.78, 113.57,
      241.78, 218.42, 329.65, 123.48, 232.37, 41.9, 25.62, 209.8, 144.78,
      121.97, 59.8, 43.37, 307.83, 194.28, 65.17, 187.95, 233.58, 170.13, 183.6,
      48.2, 37.12, 198.22, 96.83, 37.4, 39.73, 103.32, 51.55, 101.18, 25.78,
      58.82, 18.85, 22.88, 119.52, 58.28, 27.1, 100.67, 208.43, 133.8, 43.67,
      42.48, 83.18, 41.55, 47.25, 210.57, 42.23, 50.55, 154.22, 54.02, 112.83,
      0, 48.52, 104.05, 278.43, 387.78, 77.95, 47.93, 37.57, 202.63, 36.7,
      28.02, 88.15, 112.72, 130.15, 221.12, 229.1, 23.18, 60.28, 59.23, 45.63,
      58.52, 111.88, 44.72, 241.98, 21.95, 230.38, 214.28, 145.38, 104.45,
      106.02, 203.17, 228.43
    ],
    [
      130.83, 44.32, 136.7, 37.77, 76.08, 232.28, 184.28, 38.37, 63.28, 25.03,
      36.07, 157.42, 68, 242.02, 130.8, 148.33, 117.18, 204.17, 239.72, 199.48,
      224.73, 50.93, 103.65, 24.48, 318.1, 107.17, 343.03, 207.88, 22.95, 19.4,
      90.87, 174.47, 172.07, 38.83, 232.25, 361.25, 17.97, 189.8, 128.12,
      243.52, 74.32, 32.03, 38.1, 157.4, 128, 165.02, 126.73, 120.25, 248.48,
      201.4, 336.33, 130.43, 239.07, 16.03, 47.63, 216.5, 151.32, 128.92, 66.33,
      34.58, 290.83, 200.97, 53.6, 194.65, 240.27, 176.83, 190.3, 67.17, 60.22,
      204.92, 103.37, 26.88, 31.7, 110.27, 63.72, 108.13, 48.87, 49.55, 41.2,
      48.63, 126.47, 66.05, 31.87, 107.62, 215.12, 140.33, 21.83, 34.93, 66.17,
      35.08, 40.55, 217.25, 21.8, 61, 160.92, 25.37, 119.78, 43.82, 0, 111,
      285.12, 382.08, 84.9, 58.65, 35.5, 209.33, 28.63, 51.1, 71.13, 119.67,
      136.68, 227.8, 235.78, 45.73, 51.03, 60.22, 64.93, 66.28, 118.83, 11,
      248.68, 37.27, 237.08, 220.98, 128.37, 110.98, 112.97, 186.15, 235.13
    ],
    [
      32.33, 104.52, 36.95, 104.18, 167.92, 132.53, 84.53, 82.92, 70.07, 95.63,
      127.92, 249.27, 77.77, 142.25, 30.97, 48.57, 15.88, 104.42, 139.97, 99.72,
      124.97, 69.75, 41.23, 125.75, 218.35, 24.27, 336.58, 108.13, 117.9,
      120.67, 33.7, 74.7, 72.32, 126.92, 132.5, 261.5, 123.92, 281.63, 219.97,
      143.77, 166.17, 123.88, 132.53, 58.88, 28.23, 65.27, 25.72, 20.5, 148.72,
      293.25, 236.58, 27.73, 139.3, 120.92, 91.82, 116.73, 52.82, 27.68, 58.47,
      128.23, 373.22, 101.22, 150.02, 94.88, 140.52, 77.07, 90.53, 71.63, 78.17,
      105.15, 23.35, 123.92, 126.03, 30.22, 73.73, 17.13, 85.23, 141.4, 105.37,
      102.13, 26.45, 77.72, 96.27, 13.5, 115.37, 41.82, 108.77, 126.78, 158.02,
      126.42, 133.47, 117.5, 121.8, 75.57, 61.15, 119.67, 18.47, 104.25, 113.6,
      0, 185.37, 294.72, 38.08, 63.12, 122.43, 109.57, 123.22, 85.22, 162.98,
      18.37, 46.62, 128.05, 136.03, 114.47, 142.88, 76.62, 72.57, 77.95, 27.82,
      109.8, 148.92, 101.67, 137.32, 121.22, 220.22, 33.45, 11.67, 278, 135.37
    ],
    [
      179.05, 280.82, 175.63, 280.48, 344.22, 85.2, 122.55, 259.22, 246.37,
      271.93, 304.2, 328.22, 254.07, 83.48, 181.47, 145.28, 191.35, 102.65,
      90.88, 104.13, 89.45, 246.05, 211.68, 302.05, 34.22, 195.18, 152.45,
      111.4, 294.2, 296.97, 203.48, 136.28, 127.28, 303.22, 84.03, 77.37, 300.2,
      297.8, 362.55, 85.28, 342.47, 300.18, 308.82, 146.43, 163.15, 134.25,
      195.27, 172, 41.93, 287.18, 52.45, 191.77, 68.72, 297.22, 268.12, 97.73,
      195.95, 192.53, 228.23, 304.53, 189.08, 99.53, 326.32, 132.78, 90.42,
      122.03, 110.5, 247.93, 254.47, 107.63, 194.27, 300.22, 302.33, 206.52,
      250.03, 194.4, 261.53, 317.7, 281.65, 278.43, 188.58, 254.02, 272.57,
      189.8, 96.35, 168.8, 285.05, 303.08, 334.32, 302.72, 309.77, 113.62,
      298.1, 251.87, 130.1, 295.97, 195.68, 280.55, 289.9, 188.73, 0, 110.6,
      214.38, 239.42, 298.72, 98.72, 299.52, 261.52, 339.28, 195.58, 186.58,
      117.18, 76.88, 290.77, 319.18, 252.92, 248.87, 254.25, 191.95, 286.1,
      67.63, 277.97, 83.62, 117.1, 359.58, 204.37, 188.88, 301.72, 88.07
    ],
    [
      282.48, 384.25, 279.07, 383.92, 342.23, 188.63, 225.98, 362.65, 349.8,
      375.37, 390.18, 231.75, 357.5, 186.92, 284.9, 248.72, 294.78, 206.08,
      194.32, 207.57, 192.88, 349.48, 315.12, 391.27, 128.42, 298.63, 51.68,
      214.83, 397.63, 387.05, 306.92, 239.72, 230.72, 391.78, 187.47, 31.62,
      403.65, 201.33, 266.07, 188.72, 321.62, 386.15, 412.27, 249.87, 266.58,
      237.68, 298.7, 275.43, 145.37, 190.7, 146.65, 295.2, 172.15, 400.65,
      371.55, 201.17, 299.38, 295.97, 331.67, 386.47, 92.6, 202.98, 429.75,
      236.22, 193.87, 225.47, 213.93, 351.37, 357.9, 211.07, 297.7, 403.65,
      405.77, 309.95, 353.47, 297.85, 364.97, 395.4, 385.1, 381.87, 292.02,
      357.45, 376, 293.23, 199.78, 272.23, 388.5, 380.77, 343.53, 406.15, 386.4,
      217.05, 384.08, 355.3, 233.53, 399.4, 299.12, 383.98, 393.33, 292.17,
      106.9, 0, 317.82, 342.85, 386.35, 202.15, 402.95, 364.95, 345.58, 299.02,
      290.02, 220.62, 180.32, 394.2, 396.87, 356.35, 352.3, 357.68, 295.38,
      389.53, 171.07, 381.4, 187.05, 220.53, 263.1, 307.8, 292.32, 205.23, 191.5
    ],
    [
      59.43, 78.88, 64.05, 78.55, 142.3, 159.63, 111.63, 57.28, 44.45, 70,
      102.28, 223.63, 52.13, 169.37, 58.08, 75.68, 44.28, 131.52, 167.07,
      126.83, 152.08, 44.12, 42.62, 100.12, 245.45, 41.43, 363.68, 135.23,
      92.27, 95.05, 32.25, 101.82, 99.42, 101.28, 159.6, 288.6, 98.28, 256.02,
      194.35, 170.87, 140.53, 98.25, 106.9, 86, 55.35, 92.37, 53.83, 47.6,
      175.82, 267.62, 263.68, 57.53, 166.4, 95.28, 66.2, 143.85, 79.92, 56.02,
      41.17, 102.6, 357.05, 128.32, 124.4, 121.98, 167.62, 104.18, 117.65, 46,
      52.55, 132.27, 37.63, 98.28, 100.42, 37.37, 48.1, 35.23, 59.6, 115.77,
      79.73, 76.52, 53.57, 52.08, 70.65, 34.72, 142.47, 68.92, 83.13, 101.15,
      132.38, 100.78, 107.83, 144.6, 96.17, 49.93, 88.27, 94.03, 46.87, 78.62,
      87.98, 38.08, 212.47, 321.83, 0, 37.48, 96.8, 136.68, 97.58, 59.6, 137.35,
      46.75, 73.72, 155.15, 163.13, 88.85, 117.25, 51, 46.93, 52.32, 45.93,
      84.17, 176.03, 76.03, 164.43, 148.32, 194.58, 44.35, 40.05, 252.37, 162.47
    ],
    [
      83.3, 46.58, 89, 46.27, 116.78, 184.58, 136.58, 31.78, 12.15, 44.48,
      72.07, 198.12, 21.03, 194.32, 83.02, 100.63, 69.23, 156.47, 192.02,
      151.77, 177.03, 19.4, 56.1, 72.87, 270.4, 59.63, 388.63, 160.18, 66.77,
      70.98, 43.33, 126.77, 124.37, 69, 184.55, 313.55, 70.57, 230.5, 168.83,
      195.82, 115.03, 72.75, 74.6, 109.85, 80.3, 117.32, 78.78, 72.55, 200.77,
      242.1, 288.63, 82.48, 191.35, 69.78, 33.9, 168.8, 103.78, 80.97, 18.78,
      70.3, 331.53, 153.27, 92.1, 146.93, 192.57, 129.13, 142.58, 13.72, 20.25,
      157.22, 55.82, 66, 68.12, 62.3, 18.65, 60.18, 27.3, 87.1, 47.43, 44.22,
      78.52, 22.1, 45.13, 59.65, 167.42, 92.78, 57.62, 71.07, 106.88, 68.5,
      75.53, 169.55, 70.83, 17.65, 113.22, 68.53, 71.82, 46.32, 62.47, 63.03,
      237.42, 346.78, 36.93, 0, 64.5, 161.63, 65.3, 27.3, 111.83, 71.7, 89.13,
      180.1, 188.08, 56.55, 88.57, 26.47, 14.65, 22.35, 70.88, 58.67, 200.98,
      44.45, 189.38, 173.27, 169.08, 63.45, 65, 226.87, 187.42
    ],
    [
      141.05, 38.28, 146.77, 26.48, 60.13, 242.33, 194.33, 56.53, 61.8, 46.37,
      13.02, 141.47, 74.08, 252.07, 140.78, 158.38, 126.98, 214.22, 249.77,
      209.53, 234.78, 69.1, 113.85, 24.55, 328.15, 117.38, 327.1, 217.93, 29.97,
      22.67, 101.08, 184.52, 182.13, 8.4, 242.3, 371.3, 25.22, 173.85, 112.18,
      253.58, 58.37, 12.48, 20.45, 167.62, 138.05, 175.07, 136.53, 130.32,
      258.53, 185.45, 346.38, 140.23, 249.12, 31.12, 42.35, 226.55, 161.53,
      138.72, 76.53, 11.02, 274.88, 211.03, 54.47, 204.7, 250.32, 186.88,
      200.35, 64.93, 53.87, 214.97, 113.57, 29.17, 18.65, 120.07, 68.28, 117.93,
      42.53, 25.85, 29.92, 45.25, 136.27, 75.02, 46.25, 117.42, 225.17, 150.53,
      40.97, 12.55, 50.22, 31.4, 14.3, 227.3, 21.97, 67.28, 170.97, 27.82,
      129.57, 35.28, 35.77, 120.8, 295.17, 366.13, 94.68, 64.67, 0, 219.38,
      16.15, 44.77, 55.18, 129.47, 146.88, 237.85, 245.83, 46.62, 27.32, 78.38,
      62.37, 75.25, 128.63, 37.95, 258.73, 41.1, 247.13, 231.03, 112.42, 121.2,
      122.77, 170.22, 245.18
    ],
    [
      112.7, 205.15, 99.98, 204.82, 268.57, 36.85, 46.9, 183.55, 170.72, 196.27,
      228.55, 349.9, 178.4, 46.58, 105.8, 69.62, 115.68, 31.02, 44.28, 20.78,
      29.3, 170.38, 136.02, 226.38, 128.78, 119.53, 247, 36.8, 218.53, 221.32,
      127.82, 66.65, 60.92, 227.55, 36.82, 171.92, 224.55, 382.28, 320.62,
      48.08, 266.8, 224.52, 233.17, 80.08, 87.48, 67.9, 126.58, 96.33, 59.15,
      381.73, 147.02, 125.4, 43.63, 221.55, 192.47, 21.07, 129.6, 126.18,
      152.58, 228.87, 283.65, 33.18, 250.67, 57.13, 44.83, 55.68, 44.15, 172.27,
      178.82, 26.23, 118.6, 224.55, 226.68, 130.85, 174.37, 118.75, 185.87,
      242.03, 206, 202.78, 119.4, 178.35, 196.92, 114.13, 19.68, 102.45, 209.4,
      227.42, 258.65, 227.05, 234.1, 21.15, 222.43, 176.2, 54.45, 220.3, 120.03,
      204.88, 214.25, 113.07, 95.8, 205.15, 138.72, 163.75, 223.07, 0, 223.85,
      185.87, 263.62, 119.92, 110.92, 25.55, 40.35, 215.12, 243.52, 177.27,
      173.2, 178.58, 125.6, 210.43, 59.35, 202.3, 41.65, 25.47, 320.85, 128.72,
      113.22, 378.63, 39.7
    ],
    [
      139.58, 36.33, 145.28, 24.53, 68.42, 240.87, 192.87, 54.58, 60.32, 43.52,
      17.42, 149.75, 72.6, 250.58, 139.3, 156.9, 125.5, 212.75, 248.3, 208.05,
      233.3, 67.15, 112.38, 15.47, 326.68, 115.9, 335.38, 216.47, 24.73, 16.33,
      99.6, 183.03, 180.65, 14.58, 240.82, 369.82, 16.28, 182.13, 120.47, 252.1,
      66.67, 22.7, 18.88, 166.13, 136.57, 173.6, 135.05, 128.83, 257.05, 193.73,
      344.92, 138.75, 247.63, 19.58, 40.87, 225.07, 160.05, 137.23, 75.07,
      21.32, 283.17, 209.55, 41.45, 203.22, 248.85, 185.4, 198.87, 63.47, 52.38,
      213.48, 112.1, 18.47, 14.58, 118.58, 66.82, 116.45, 41.05, 34.13, 27.97,
      43.77, 134.78, 73.53, 44.3, 115.93, 223.68, 149.07, 41.52, 17.82, 58.52,
      17.85, 22.58, 225.83, 16.17, 65.8, 169.48, 29.03, 128.1, 33.33, 24.18,
      119.32, 293.7, 374.43, 93.22, 63.2, 19.07, 217.9, 0, 43.28, 63.48, 127.98,
      145.42, 236.38, 244.37, 45.13, 35.62, 76.43, 60.9, 73.78, 127.15, 29.32,
      257.25, 39.15, 245.65, 229.55, 120.72, 119.72, 121.28, 178.5, 243.7
    ],
    [
      103.32, 26.1, 109.02, 25.77, 100.88, 204.6, 156.6, 26.93, 24.05, 32.28,
      51.58, 182.22, 36.35, 214.32, 103.03, 120.63, 89.23, 176.48, 212.03,
      171.78, 197.03, 34.58, 76.12, 52.38, 290.42, 79.63, 367.85, 180.2, 45.57,
      50.5, 63.33, 146.77, 144.38, 48.5, 204.57, 333.57, 50.07, 214.6, 152.93,
      215.83, 99.12, 54.55, 54.12, 129.87, 100.32, 137.33, 98.78, 92.57, 220.78,
      226.2, 308.65, 102.48, 211.37, 50, 12.72, 188.82, 123.78, 100.97, 38.8,
      49.82, 315.63, 173.28, 71.6, 166.95, 212.58, 149.15, 162.6, 27.2, 16.12,
      177.23, 75.83, 45.5, 47.62, 82.32, 30.55, 80.2, 6.12, 66.6, 26.95, 23.73,
      98.52, 37.28, 29.1, 79.67, 187.43, 112.8, 45.42, 50.58, 90.97, 48, 55.05,
      189.57, 50.33, 29.55, 133.23, 56.32, 91.83, 25.83, 50.25, 83.05, 257.43,
      366.8, 56.95, 26.93, 44.02, 181.63, 44.8, 0, 95.93, 91.72, 109.15, 200.12,
      208.1, 36.07, 68.08, 41.63, 24.63, 37.52, 90.88, 46.45, 220.98, 23.97,
      209.38, 193.28, 153.18, 83.45, 85.02, 210.97, 207.43
    ],
    [
      188.05, 92.88, 193.92, 81.08, 17.12, 289.5, 241.5, 95.58, 116.7, 82.25,
      63.97, 105.52, 125.22, 299.23, 188.02, 205.55, 174.4, 261.38, 296.93,
      256.7, 281.95, 108.15, 160.85, 65.05, 375.32, 164.38, 291.15, 265.1,
      84.57, 60.82, 148.08, 231.68, 229.28, 65.57, 289.47, 349.37, 71.02, 137.9,
      76.23, 300.73, 22.42, 59.93, 77.62, 214.62, 185.22, 222.23, 183.95,
      177.47, 305.68, 149.5, 393.55, 187.65, 296.27, 83.98, 97.27, 273.72,
      208.53, 186.13, 123.55, 60.23, 238.93, 258.18, 102.47, 251.85, 297.48,
      234.05, 247.52, 119.85, 108.78, 262.13, 160.58, 76.62, 73.72, 167.48,
      120.93, 165.35, 97.43, 69.17, 84.52, 100.17, 183.68, 123.27, 89.08,
      164.83, 272.33, 197.53, 80.38, 54.55, 9.53, 78.85, 60.17, 274.47, 57.85,
      118.22, 218.13, 69, 176.98, 89.88, 76.67, 168.22, 342.33, 330.2, 142.12,
      115.85, 60.12, 266.55, 70.6, 99.67, 0, 176.88, 193.9, 285.02, 293, 101.53,
      70.65, 117.43, 117.28, 123.5, 176.05, 81.58, 305.9, 94.48, 294.3, 278.18,
      76.48, 168.2, 170.18, 134.27, 292.33
    ],
    [
      33.53, 109.55, 42.65, 109.22, 172.95, 138.23, 90.23, 87.95, 75.1, 100.67,
      132.95, 254.3, 82.8, 147.95, 36.67, 54.27, 10.6, 110.12, 145.67, 105.42,
      130.68, 74.78, 46.27, 130.78, 224.05, 39.63, 342.28, 113.83, 122.93,
      125.7, 38.73, 80.4, 78.02, 131.95, 138.2, 267.2, 128.95, 286.67, 225,
      149.47, 171.2, 128.92, 137.57, 64.58, 33.95, 70.97, 10.22, 26.2, 154.42,
      298.28, 242.28, 12.23, 145, 125.95, 96.85, 122.45, 58.52, 11.28, 63.5,
      133.27, 378.92, 106.92, 155.05, 100.58, 146.22, 82.78, 96.23, 76.67, 83.2,
      110.87, 35.83, 128.95, 131.07, 35.25, 78.77, 23.15, 90.27, 146.43, 110.4,
      107.17, 16.3, 82.75, 101.3, 18.53, 121.07, 47.52, 113.8, 131.82, 163.05,
      131.45, 138.5, 123.2, 126.83, 80.6, 66.87, 124.7, 2.92, 109.28, 118.63,
      15.93, 191.07, 300.43, 43.12, 68.15, 127.47, 115.28, 128.25, 90.25,
      168.02, 0, 52.32, 133.75, 141.73, 119.5, 147.92, 81.65, 77.6, 82.98, 26,
      114.83, 154.62, 106.7, 143.02, 126.92, 225.25, 42.55, 12.03, 283.03,
      141.07
    ],
    [
      43.75, 127.43, 33.4, 127.1, 190.42, 129.47, 81.47, 105.42, 92.98, 118.12,
      150.4, 271.75, 100.68, 139.2, 34, 45.52, 46.2, 101.35, 136.9, 96.67,
      121.92, 92.25, 41.77, 148.25, 215.28, 35.7, 333.52, 105.07, 140.4, 143.17,
      49.68, 71.65, 69.25, 149.83, 129.43, 258.43, 146.4, 304.13, 242.47, 140.7,
      188.65, 146.37, 155.43, 63.35, 25.18, 62.2, 54.58, 24, 145.67, 315.73,
      233.52, 56.6, 136.25, 143.42, 114.73, 113.68, 64.23, 52.65, 74.43, 151.15,
      370.17, 98.15, 172.93, 71.38, 137.45, 74.02, 87.48, 94.55, 101.08, 102.1,
      40.47, 146.83, 148.95, 58.82, 96.65, 48.77, 108.15, 163.9, 128.27, 125.05,
      47.42, 100.63, 118.77, 44.15, 112.3, 44.67, 131.25, 149.27, 180.52,
      149.33, 154.9, 114.43, 144.3, 98.48, 58.1, 142.17, 50.05, 127.17, 136.1,
      43.65, 182.3, 291.67, 68.57, 86.03, 145.33, 106.52, 146.13, 108.13,
      185.47, 49.93, 0, 124.98, 132.97, 137.38, 165.37, 99.12, 95.48, 100.87,
      56.8, 132.3, 145.87, 124.17, 134.27, 118.17, 242.72, 32.33, 42.12, 300.5,
      132.32
    ],
    [
      137, 229.45, 124.27, 229.12, 292.85, 61.15, 71.18, 207.85, 195, 220.57,
      252.85, 374.2, 202.7, 70.87, 130.1, 93.92, 139.98, 42.97, 68.58, 30.85,
      53.6, 194.68, 160.32, 250.68, 153.07, 143.83, 271.3, 24.38, 242.83, 245.6,
      152.12, 90.95, 85.22, 251.85, 61.12, 196.22, 248.85, 406.57, 344.9, 72.38,
      291.1, 248.82, 257.47, 104.37, 111.78, 92.2, 150.88, 120.63, 83.45,
      406.03, 171.3, 149.7, 67.92, 245.85, 216.75, 45.37, 153.88, 150.47,
      176.87, 253.17, 307.95, 57.48, 274.95, 69.07, 69.13, 79.98, 68.43, 196.57,
      203.1, 26.43, 142.9, 248.85, 250.97, 155.15, 198.67, 143.05, 210.17,
      266.33, 230.3, 227.07, 143.7, 202.65, 221.2, 138.43, 43.98, 126.73, 233.7,
      251.72, 282.95, 251.35, 258.4, 15.13, 246.73, 200.5, 78.73, 244.6, 144.32,
      229.18, 238.53, 137.37, 120.08, 229.45, 163.02, 188.05, 247.37, 33.05,
      248.15, 210.15, 287.92, 144.22, 135.22, 0, 64.65, 239.4, 267.82, 201.55,
      197.5, 202.88, 149.88, 234.73, 83.65, 226.6, 65.93, 12.08, 345.15, 153,
      137.52, 402.93, 63.98
    ],
    [
      138.37, 228.45, 123.28, 228.12, 291.87, 22.67, 70.2, 206.85, 194.02,
      219.57, 251.85, 373.2, 201.7, 17.15, 129.1, 92.92, 138.98, 54.32, 23.08,
      44.08, 21.65, 193.68, 159.32, 249.68, 105.92, 142.83, 224.15, 60.1,
      241.83, 244.62, 151.12, 89.95, 86.58, 250.85, 16.23, 149.07, 247.85,
      369.52, 343.92, 14.32, 290.1, 247.82, 256.47, 105.73, 110.78, 93.55,
      149.88, 119.63, 36.28, 358.88, 124.15, 151.07, 14.2, 244.85, 215.77,
      29.93, 155.25, 147.95, 175.88, 252.17, 260.8, 58.85, 273.97, 80.43, 15.25,
      81.33, 69.8, 195.57, 202.12, 49.53, 141.9, 247.85, 249.98, 154.15, 197.67,
      142.05, 209.17, 265.33, 229.3, 226.08, 142.7, 201.65, 220.22, 137.43,
      28.55, 128.1, 232.7, 250.72, 281.95, 250.35, 257.4, 51.68, 245.73, 199.5,
      77.75, 243.6, 143.33, 228.18, 237.55, 136.37, 72.93, 182.3, 162.02,
      187.05, 246.37, 38.47, 247.15, 209.17, 286.92, 143.22, 134.22, 56.95, 0,
      238.42, 266.82, 200.57, 196.5, 201.88, 151.25, 233.73, 38.55, 225.6, 14,
      56.87, 344.15, 152.02, 136.52, 373.42, 12.57
    ],
    [
      134.48, 34.42, 140.18, 32.08, 102.85, 235.77, 187.77, 46.25, 55.22, 39.4,
      53.23, 184.18, 56.38, 245.5, 134.22, 151.82, 120.42, 207.65, 243.2,
      202.97, 228.22, 58.82, 107.28, 54.03, 321.58, 110.82, 369.8, 211.37,
      40.97, 50.47, 94.52, 177.95, 175.55, 50.15, 235.73, 364.73, 43.32, 216.57,
      154.9, 247, 101.08, 57.53, 55.88, 161.03, 131.48, 168.5, 129.97, 123.73,
      251.95, 228.17, 339.82, 133.67, 242.53, 37.15, 35.78, 219.98, 154.97,
      132.15, 69.97, 52.8, 317.6, 204.45, 59.08, 198.12, 243.75, 180.32, 193.78,
      58.37, 47.3, 208.4, 107, 37.83, 49.48, 113.5, 61.67, 111.37, 35.95, 68.57,
      31.22, 29.98, 129.7, 54.28, 35.97, 110.85, 218.6, 143.97, 52.53, 52.23,
      92.93, 47.72, 57.02, 220.73, 52, 60.72, 164.4, 56.43, 123, 20.48, 46.18,
      114.22, 288.6, 397.97, 88.12, 58.1, 47, 212.82, 46.47, 38.18, 97.9,
      122.88, 140.32, 231.28, 239.27, 0, 70.03, 68.3, 55.8, 48.45, 122.07,
      46.87, 252.17, 30.82, 240.57, 224.45, 155.13, 114.63, 116.18, 212.92,
      238.6
    ],
    [
      162.73, 59.65, 168.45, 47.85, 72.3, 264.03, 216.03, 71.87, 83.48, 58.52,
      39.65, 153.63, 95.77, 273.75, 162.47, 180.07, 148.67, 235.92, 271.45,
      231.22, 256.47, 84.43, 135.53, 42.42, 349.85, 139.07, 339.25, 239.62,
      51.33, 37.1, 122.77, 206.2, 203.82, 33.02, 263.98, 392.98, 46.67, 186.02,
      124.35, 275.27, 70.53, 36.22, 45.07, 189.3, 159.73, 196.77, 158.22, 152,
      280.22, 197.62, 368.08, 161.92, 270.8, 47.88, 64.03, 248.23, 183.22,
      160.4, 98.23, 32, 287.05, 232.72, 69.23, 226.38, 272, 208.57, 222.03,
      86.62, 75.55, 236.65, 135.27, 43.38, 40.5, 141.75, 89.97, 139.62, 64.22,
      1.88, 51.28, 66.93, 157.95, 96.7, 65.37, 139.1, 246.85, 172.22, 56.67,
      29.95, 62.38, 45.63, 29.08, 249, 34.13, 88.97, 192.65, 45.28, 151.25,
      56.67, 52.95, 142.48, 316.87, 378.3, 116.37, 86.35, 28.17, 241.07, 37.38,
      66.45, 67.35, 151.15, 168.58, 259.55, 267.52, 68.3, 0, 93.72, 84.05,
      96.95, 150.32, 57.87, 280.42, 62.47, 268.82, 252.72, 124.58, 142.88,
      144.45, 182.37, 266.87
    ],
    [
      98.97, 56.97, 104.83, 56.4, 116.17, 200.42, 152.42, 31.17, 22.35, 43.88,
      76.15, 197.5, 27.07, 210.13, 98.92, 116.45, 85.32, 172.3, 207.85, 167.6,
      192.85, 14.12, 71.77, 74, 286.23, 75.3, 383.13, 176.02, 66.15, 68.92, 59,
      142.58, 140.2, 79.13, 200.38, 329.38, 72.15, 229.88, 168.22, 211.65,
      114.42, 72.13, 84.85, 125.52, 96.13, 133.15, 94.87, 88.38, 216.6, 241.48,
      304.47, 98.57, 207.18, 69.17, 50.08, 184.63, 119.45, 97.05, 34.45, 77.67,
      330.92, 169.1, 103.88, 162.77, 208.4, 144.97, 158.42, 29.9, 36.43, 173.05,
      71.48, 76.13, 78.47, 78.4, 22.78, 76.27, 43.48, 89.65, 57.57, 60.4, 94.6,
      25.12, 44.52, 75.75, 183.25, 108.45, 57, 75.03, 106.27, 80.28, 80.65,
      185.38, 70.05, 24.07, 129.05, 67.92, 87.9, 56.47, 61.85, 79.12, 253.25,
      362.62, 53.02, 24.92, 76.3, 177.45, 75.43, 43.48, 111.23, 87.78, 104.8,
      195.93, 203.92, 65.68, 91.13, 0, 24, 25.35, 86.97, 58.05, 216.8, 49.92,
      205.2, 189.1, 168.47, 79.12, 81.1, 226.25, 203.25
    ],
    [
      89.65, 44.67, 95.35, 44.35, 119.47, 190.93, 142.93, 38.13, 8.65, 50.85,
      70.15, 200.8, 15.77, 200.67, 89.38, 106.98, 75.58, 162.82, 198.37, 158.13,
      183.38, 18.28, 62.45, 70.95, 276.75, 65.98, 394.98, 166.53, 64.13, 69.07,
      49.68, 133.12, 130.72, 67.08, 190.9, 319.9, 68.65, 233.18, 171.5, 202.17,
      117.7, 73.13, 72.68, 116.2, 86.65, 123.67, 85.13, 78.9, 207.13, 244.78,
      294.98, 88.83, 197.72, 68.57, 31.98, 175.15, 110.13, 87.32, 25.13, 68.38,
      334.22, 159.62, 90.18, 153.3, 198.92, 135.48, 148.95, 11.8, 18.33, 163.57,
      62.17, 64.08, 66.2, 68.67, 11.37, 66.53, 25.38, 85.18, 45.52, 42.3, 84.87,
      14.37, 47.68, 66.02, 173.77, 99.13, 63.98, 69.15, 109.55, 66.58, 73.62,
      175.9, 68.92, 14.15, 119.57, 74.88, 78.17, 44.4, 68.82, 69.38, 243.77,
      353.13, 43.28, 13.27, 62.58, 167.98, 63.38, 25.38, 114.52, 78.05, 95.48,
      186.45, 194.43, 54.63, 86.65, 25.35, 0, 14.6, 77.23, 65.02, 207.33, 42.53,
      195.73, 179.63, 171.75, 69.8, 71.37, 229.53, 193.78
    ],
    [
      92.22, 59.45, 98.08, 59.12, 125.35, 193.67, 145.67, 40.33, 19.77, 53.05,
      84.93, 206.68, 14.92, 203.4, 92.18, 109.72, 84.77, 165.55, 201.1, 160.87,
      186.12, 19.77, 64.97, 83.17, 279.48, 68.55, 397.72, 169.27, 75.32, 78.1,
      52.25, 135.85, 133.45, 81.85, 193.63, 322.63, 83.42, 239.07, 177.38,
      204.9, 123.58, 81.3, 87.47, 118.78, 89.38, 126.4, 94.32, 81.63, 209.87,
      250.67, 297.72, 98.02, 200.45, 75.35, 46.77, 177.88, 112.7, 96.5, 26.42,
      83.17, 340.1, 162.35, 97.28, 156.03, 201.65, 138.22, 151.68, 26.57, 33.1,
      166.3, 64.75, 76.05, 80.97, 77.85, 20.2, 75.72, 40.17, 99.95, 60.3, 57.08,
      94.05, 12.82, 53.7, 75.2, 176.5, 101.72, 66.18, 83.93, 115.43, 81.35,
      88.4, 178.63, 79.22, 21.5, 122.3, 77.08, 87.35, 59.18, 71.03, 78.58,
      246.5, 355.87, 52.48, 21.58, 77.37, 170.72, 78.15, 40.17, 120.4, 87.25,
      98.07, 189.18, 197.17, 47.68, 101.43, 26.83, 23.48, 0, 86.42, 67.22,
      210.07, 57.32, 198.47, 182.37, 177.63, 72.37, 80.55, 235.42, 196.52
    ],
    [
      30.27, 110.05, 43.77, 109.72, 173.47, 144.53, 102.52, 88.45, 75.62,
      101.17, 133.45, 254.8, 83.3, 160.25, 43.22, 66.57, 28.55, 117.25, 155.38,
      117.72, 142.97, 75.28, 46.15, 131.28, 223.73, 39.52, 341.95, 126, 123.43,
      126.22, 38.63, 88.73, 73.22, 132.45, 148.52, 266.87, 129.45, 287.18,
      225.5, 161.77, 171.7, 129.42, 138.07, 56.65, 46.23, 66.17, 19.2, 38.5,
      154.1, 298.78, 241.97, 17.93, 157.3, 126.45, 97.37, 134.73, 50.57, 25.3,
      63.38, 133.77, 378.6, 105, 155.55, 112.88, 157.73, 77.98, 92.73, 77.17,
      83.7, 122.23, 35.72, 129.45, 131.57, 23.53, 79.27, 15.65, 90.77, 146.93,
      110.9, 107.68, 32, 83.25, 101.82, 20.47, 133.35, 39.58, 114.3, 132.32,
      163.55, 131.95, 139, 135.48, 127.33, 81.1, 79.15, 125.2, 26.08, 109.78,
      119.15, 26.82, 190.75, 300.1, 43.62, 68.65, 127.97, 126.32, 128.75, 90.77,
      168.52, 25.98, 64.6, 144.8, 154.02, 120.02, 148.42, 82.15, 78.1, 83.48, 0,
      115.33, 154.3, 107.2, 155.32, 138.57, 225.75, 42.43, 24.38, 283.53, 153.37
    ],
    [
      128.52, 42, 134.38, 30.17, 82.77, 229.97, 181.97, 36.05, 60.95, 22.7,
      37.55, 164.1, 65.67, 239.7, 128.48, 146.02, 114.87, 201.85, 237.4, 197.15,
      222.42, 48.62, 101.32, 25.08, 315.78, 104.85, 349.73, 205.57, 16.13,
      25.55, 88.55, 172.15, 169.75, 34.47, 229.93, 358.93, 18.65, 196.48,
      134.82, 241.2, 81.02, 38.73, 40.2, 155.08, 125.68, 162.7, 124.42, 117.93,
      246.15, 208.08, 334.02, 128.12, 236.73, 16.63, 45.32, 214.18, 149, 126.6,
      64, 37.12, 297.52, 198.65, 56.65, 192.32, 237.95, 174.52, 187.97, 64.85,
      57.88, 202.6, 101.03, 27.68, 33.8, 107.95, 61.38, 105.82, 46.55, 52.88,
      33.6, 46.32, 124.15, 63.73, 29.55, 105.3, 212.8, 138, 12.18, 36.55, 72.87,
      35.3, 41.33, 214.93, 27.95, 58.68, 158.6, 31.52, 117.45, 38.98, 10.65,
      108.68, 282.8, 392.17, 82.57, 56.32, 31.32, 207.02, 30.78, 48.78, 77.83,
      117.35, 134.35, 225.48, 233.47, 48.78, 54.35, 57.9, 62.62, 63.97, 116.52,
      0, 246.37, 34.95, 234.77, 218.65, 135.07, 108.67, 110.65, 192.85, 232.8
    ],
    [
      139.88, 241.63, 136.47, 241.32, 305.05, 41.92, 83.38, 220.05, 207.2,
      232.75, 265.03, 386.38, 214.9, 49.6, 142.3, 106.12, 152.18, 63.48, 52.13,
      64.97, 47.75, 206.88, 172.5, 262.88, 97.32, 156.02, 215.55, 72.22, 255.03,
      257.8, 164.32, 97.1, 88.1, 264.05, 41.13, 140.47, 261.03, 360.92, 357.1,
      51.38, 303.3, 261.02, 269.65, 107.27, 123.97, 95.08, 156.08, 132.83,
      27.68, 350.28, 115.55, 152.6, 34.82, 258.05, 228.95, 58.98, 156.78,
      153.37, 189.07, 265.35, 252.18, 60.37, 287.15, 93.62, 47.88, 82.87, 71.33,
      208.77, 215.3, 68.45, 155.1, 261.05, 263.17, 167.35, 210.87, 155.23,
      222.37, 278.53, 242.48, 239.27, 149.42, 214.85, 233.4, 150.63, 57.6,
      129.63, 245.88, 263.9, 295.15, 263.55, 270.58, 74.45, 258.93, 212.7,
      90.93, 256.8, 156.52, 241.37, 250.73, 149.57, 64.33, 173.7, 175.22,
      200.25, 259.55, 59.55, 260.35, 222.35, 300.1, 156.4, 147.42, 78.02, 42.98,
      251.6, 280, 213.75, 209.7, 215.08, 152.78, 246.93, 0, 238.8, 33.58, 77.93,
      357.35, 165.2, 149.72, 364.82, 44.98
    ],
    [
      120.43, 19.97, 126.3, 20.67, 93.42, 221.88, 173.88, 27.97, 45.05, 21.12,
      46.48, 174.75, 57.35, 231.6, 120.38, 137.92, 106.78, 193.77, 229.32,
      189.07, 214.32, 40.52, 93.23, 47.27, 307.7, 96.75, 360.37, 197.48, 43.38,
      45.4, 80.45, 164.05, 161.67, 43.4, 221.83, 350.83, 46.62, 207.13, 145.47,
      233.12, 91.65, 49.37, 49.12, 146.98, 117.58, 154.62, 116.32, 109.85,
      238.07, 218.73, 325.93, 120.02, 228.65, 46.4, 25.62, 206.08, 140.9, 118.5,
      55.92, 46.37, 308.17, 190.57, 68.15, 184.23, 229.87, 166.42, 179.88, 48.2,
      37.12, 194.5, 92.95, 40.4, 42.73, 99.85, 51.55, 97.73, 25.78, 61.8, 21.83,
      25.55, 116.07, 55.63, 14.02, 97.2, 204.7, 129.92, 34.25, 45.48, 83.5,
      44.55, 50.25, 206.85, 45.23, 50.6, 150.5, 45.15, 109.37, 20.73, 39.1,
      100.58, 274.72, 384.07, 74.48, 47.93, 40.57, 198.92, 39.7, 28.02, 88.47,
      109.25, 126.27, 217.4, 225.37, 29.95, 63.28, 49.82, 45.63, 55.88, 108.42,
      35.28, 238.27, 0, 226.67, 210.57, 145.7, 100.57, 102.55, 203.48, 224.72
    ],
    [
      142.6, 232.68, 127.52, 232.37, 296.1, 20.52, 74.43, 211.1, 198.25, 223.8,
      256.08, 377.43, 205.95, 25.32, 133.35, 97.17, 143.23, 58.57, 19.4, 48.33,
      25.9, 197.93, 163.55, 253.93, 114.08, 147.07, 232.32, 64.33, 246.08,
      248.85, 155.37, 94.18, 90.82, 255.1, 14.17, 157.23, 252.08, 377.68,
      348.15, 26.83, 294.35, 252.07, 260.7, 109.98, 115.02, 97.8, 154.12,
      123.88, 44.45, 367.05, 132.32, 155.3, 17.82, 249.1, 220, 34.18, 159.5,
      152.18, 180.12, 256.4, 268.95, 63.08, 278.2, 84.67, 14.55, 85.58, 74.05,
      199.82, 206.35, 53.77, 146.15, 252.1, 254.22, 158.4, 201.92, 146.28,
      213.42, 269.58, 233.53, 230.32, 146.93, 205.9, 224.45, 141.68, 32.8,
      132.35, 236.93, 254.95, 286.2, 254.6, 261.63, 55.93, 249.98, 203.75,
      81.98, 247.85, 147.57, 232.42, 241.78, 140.62, 81.1, 190.47, 166.27,
      191.3, 250.6, 42.72, 251.4, 213.4, 291.15, 147.45, 138.47, 61.18, 12.48,
      242.65, 271.05, 204.8, 200.75, 206.13, 155.5, 237.98, 34.77, 229.85, 0,
      61.1, 348.4, 156.25, 140.77, 381.58, 10.88
    ],
    [
      128.05, 214.55, 109.38, 214.22, 277.97, 52.22, 56.3, 192.95, 180.12,
      205.67, 237.95, 359.3, 187.8, 61.93, 115.2, 79.02, 125.08, 38.35, 59.65,
      26.22, 44.65, 179.78, 145.42, 235.78, 144.13, 128.93, 262.37, 19.98,
      227.93, 230.72, 137.22, 76.05, 76.28, 236.95, 52.17, 187.28, 233.95,
      391.68, 330.02, 63.45, 276.2, 233.92, 242.57, 95.43, 96.88, 83.25, 135.98,
      105.73, 74.5, 397.1, 162.37, 140.77, 58.98, 230.95, 201.87, 36.42, 144.95,
      134.05, 161.98, 238.27, 299, 48.55, 260.07, 65.27, 60.2, 71.03, 59.5,
      181.67, 188.22, 21.82, 128, 233.95, 236.08, 140.25, 183.77, 128.15,
      195.27, 251.43, 215.4, 212.18, 128.8, 187.75, 206.32, 123.53, 35.03,
      117.8, 218.8, 236.82, 268.05, 236.45, 243.5, 3.88, 231.83, 185.6, 63.85,
      229.7, 129.43, 214.28, 223.65, 122.47, 111.15, 220.52, 148.12, 173.15,
      232.47, 24.12, 233.25, 195.27, 273.02, 129.32, 120.32, 10.9, 55.7, 224.52,
      252.92, 186.67, 182.6, 187.98, 140.95, 219.83, 74.7, 211.7, 57, 0, 330.25,
      138.12, 122.62, 388.03, 55.05
    ],
    [
      251.18, 156, 257.05, 144.22, 79.13, 352.63, 304.63, 158.72, 179.83,
      145.37, 127.08, 31.03, 188.33, 362.35, 251.13, 268.67, 237.53, 324.52,
      360.07, 319.82, 345.07, 171.28, 223.98, 128.18, 371.68, 227.52, 216.65,
      328.23, 147.7, 123.95, 211.22, 294.8, 292.42, 128.7, 352.6, 274.88,
      134.15, 63.4, 2.97, 363.87, 58.52, 123.07, 140.75, 277.73, 248.35, 285.37,
      247.08, 240.6, 368.82, 75.02, 389.92, 250.78, 359.4, 147.1, 160.4, 336.85,
      276.55, 249.27, 186.67, 123.37, 164.43, 321.32, 165.6, 314.98, 360.62,
      297.18, 310.63, 182.98, 171.9, 325.27, 223.7, 139.75, 136.85, 230.62,
      184.05, 228.48, 160.57, 132.3, 147.65, 163.28, 246.82, 186.4, 152.22,
      227.97, 335.47, 260.67, 143.52, 117.67, 80.43, 141.98, 123.3, 337.6,
      120.98, 181.35, 281.27, 132.13, 240.12, 153.02, 139.8, 231.33, 350.18,
      255.7, 205.23, 178.98, 123.25, 329.67, 133.73, 162.8, 82.48, 240, 257.02,
      348.15, 356.13, 164.65, 133.77, 180.57, 180.42, 186.63, 239.18, 144.72,
      369.02, 157.62, 357.42, 341.32, 0, 231.33, 233.32, 59.77, 355.47
    ],
    [
      47.83, 106.42, 53.7, 106.1, 169.42, 149.28, 101.28, 84.4, 71.98, 97.12,
      129.4, 250.75, 79.68, 159.02, 47.8, 65.33, 47.02, 121.17, 156.72, 116.48,
      141.73, 71.23, 18.98, 127.25, 235.1, 16.07, 353.33, 124.88, 119.38,
      122.17, 28.68, 91.47, 89.07, 128.83, 149.25, 278.25, 125.4, 283.13,
      221.47, 160.52, 167.65, 125.37, 134.43, 74.4, 45, 82.02, 58.68, 37.25,
      165.48, 294.73, 253.33, 57.57, 156.07, 122.4, 93.73, 133.5, 68.32, 56.75,
      53.43, 130.13, 384.17, 117.97, 151.93, 97.72, 157.27, 93.83, 107.3, 73.55,
      80.08, 121.92, 23.87, 125.83, 127.95, 36.97, 75.63, 37.98, 87.13, 142.9,
      107.27, 104.05, 51.5, 79.62, 97.77, 37.45, 132.12, 57.33, 110.25, 128.27,
      159.5, 128.33, 133.9, 134.25, 123.3, 77.48, 77.92, 121.15, 49.62, 106.15,
      115.1, 38.02, 202.12, 311.48, 46.7, 65.02, 124.33, 126.33, 125.13, 87.13,
      164.47, 49.5, 33.37, 144.8, 152.78, 116.38, 144.37, 78.12, 74.48, 79.87,
      45.97, 111.3, 165.68, 103.15, 154.08, 137.98, 221.7, 0, 42.8, 279.5,
      152.13
    ],
    [
      27.5, 104.13, 37.23, 103.8, 167.53, 132.82, 84.82, 82.53, 69.68, 95.25,
      127.53, 248.88, 77.38, 142.53, 26.13, 48.85, 5.58, 104.7, 140.25, 100,
      125.27, 69.37, 40.85, 125.37, 218.63, 34.22, 336.87, 108.42, 117.52,
      120.28, 33.32, 74.98, 70.62, 126.53, 132.78, 261.78, 123.53, 281.25,
      219.58, 144.05, 165.78, 123.5, 132.15, 54.05, 28.53, 63.57, 19.42, 20.78,
      149, 292.87, 236.87, 21.43, 139.58, 120.53, 91.43, 117.03, 47.97, 20.35,
      58.08, 127.85, 373.5, 101.5, 149.63, 95.17, 140.8, 75.38, 90.82, 71.25,
      77.78, 105.45, 30.42, 123.53, 125.65, 29.83, 73.35, 16.3, 84.85, 141.02,
      104.98, 101.75, 19, 77.33, 95.88, 13.12, 115.65, 36.98, 108.38, 126.4,
      157.63, 126.03, 133.08, 117.78, 121.42, 75.18, 61.45, 119.28, 12.47,
      103.87, 113.22, 10.52, 185.65, 295.02, 37.7, 62.73, 122.05, 109.87,
      122.83, 84.83, 162.6, 12.35, 46.9, 128.33, 136.32, 114.08, 142.5, 76.23,
      72.18, 77.57, 27, 109.42, 149.2, 101.28, 137.6, 121.5, 219.83, 37.13, 0,
      277.62, 135.65
    ],
    [
      312.77, 215.9, 323.1, 204.12, 139.03, 374.72, 364.53, 218.62, 239.73,
      205.27, 186.98, 28.55, 248.23, 373.02, 311.03, 328.57, 297.43, 384.42,
      380.42, 379.72, 378.97, 231.18, 283.88, 188.08, 314.5, 287.42, 159.47,
      388.13, 207.6, 183.85, 271.12, 354.7, 352.55, 188.6, 373.55, 217.7,
      194.05, 6.68, 62.87, 374.8, 118.42, 182.97, 200.65, 335.98, 308.25, 345.5,
      306.98, 300.5, 331.45, 17.83, 332.73, 310.68, 358.23, 207, 220.3, 396.75,
      279.08, 309.17, 246.57, 183.27, 107.25, 384.33, 225.5, 374.88, 379.95,
      357.3, 372.07, 242.88, 231.8, 385.17, 283.6, 199.65, 196.75, 290.52,
      243.95, 288.38, 220.47, 192.2, 207.55, 223.18, 306.72, 246.3, 212.12,
      287.87, 395.37, 316.1, 203.42, 177.57, 140.33, 201.88, 183.2, 397.5,
      180.88, 241.25, 341.17, 192.03, 300.02, 212.92, 199.7, 291.23, 293,
      198.52, 265.13, 238.88, 183.15, 389.57, 193.63, 222.7, 142.38, 299.9,
      316.92, 408.05, 366.4, 224.55, 193.67, 240.47, 240.32, 246.53, 299.08,
      204.62, 357.17, 217.52, 373.13, 401.22, 59.9, 291.23, 293.22, 0, 377.58
    ],
    [
      139.35, 230.63, 125.45, 230.3, 294.03, 16.98, 72.37, 209.03, 196.18,
      221.75, 254.03, 375.38, 203.88, 20.45, 131.28, 95.1, 141.17, 56.5, 11.15,
      46.27, 23.83, 195.87, 161.5, 251.87, 115.17, 145.02, 233.4, 62.27, 244.02,
      246.78, 153.3, 92.13, 87.57, 253.03, 14.65, 158.32, 250.03, 378.77,
      346.08, 19.32, 292.28, 250, 258.65, 106.73, 112.97, 94.55, 152.07, 121.82,
      45.53, 368.13, 133.4, 152.07, 23.45, 247.03, 217.93, 32.12, 156.25,
      150.12, 178.05, 254.35, 270.03, 59.83, 276.13, 82.6, 4.67, 82.33, 70.8,
      197.75, 204.28, 51.7, 144.08, 250.03, 252.15, 156.33, 199.85, 144.23,
      211.35, 267.52, 231.48, 228.25, 144.88, 203.83, 222.38, 139.62, 30.73,
      129.1, 234.88, 252.9, 284.13, 252.53, 259.58, 53.87, 247.92, 201.68,
      79.92, 245.78, 145.5, 230.37, 239.72, 138.55, 82.18, 191.55, 164.2,
      189.23, 248.55, 40.65, 249.33, 211.33, 289.1, 145.4, 136.4, 59.13, 9.23,
      240.58, 269, 202.73, 198.68, 204.07, 152.25, 235.92, 41.82, 227.78, 11.35,
      59.03, 346.33, 154.18, 138.7, 382.67, 0
    ]
  ]
}
